OBJECTID,name,lat,lon,wd_mon_mn,wd_mon_af,wd_mon_ev,wd_mon_nh,wd_tue_mn,wd_tue_af,wd_tue_ev,wd_tue_nh,wd_wed_mn,wd_wed_af,wd_wed_ev,wd_wed_nh,wd_thu_mn,wd_thu_af,wd_thu_ev,wd_thu_nh,wd_fri_mn,wd_fri_af,wd_fri_ev,wd_fri_nh,ss_sat_2h,ss_sat_4h,ss_sat_6h,ss_sat_8h,ss_sat_10h,ss_sat_12h,ss_sat_14h,ss_sat_16h,ss_sat_18h,ss_sat_20h,ss_sat_22h,ss_sat_24h,ss_sun_2h,ss_sun_4h,ss_sun_6h,ss_sun_8h,ss_sun_10h,ss_sun_12h,ss_sun_14h,ss_sun_16h,ss_sun_18h,ss_sun_20h,ss_sun_22h,ss_sun_24h,type,healthy
1,Alexandra Retail Centre,1.2740465,103.8013246,3.5,5,6,0,3.5,5,6,0,3.5,5,6,0,3.5,5,6,0,3.5,5,6,0,0,0,0,0.5,2,2,2,2,2,2,2,0,0,0,0,0,2,2,2,2,2,2,2,0,burgerking,0
2,Ang Mo Kio Hub,1.3689812,103.8478606,4,5,6,2,4,5,6,2,4,5,6,2,4,5,6,2,4,5,6,2,0,0,0,1,2,2,2,2,2,2,2,2,0,0,0,1,2,2,2,2,2,2,2,2,burgerking,0
3,ARTRA,1.2901183,103.8173645,3,5,6,2,3,5,6,2,3,5,6,2,3,5,6,2,3,5,6,2,0,0,0,0,2,2,2,2,2,2,2,2,0,0,0,0,2,2,2,2,2,2,2,2,burgerking,0
4,Bukit Panjang Plaza,1.3800444,103.7642421,3,5,6,0.5,3,5,6,0.5,3,5,6,0.5,3,5,6,0.5,3,5,6,0.5,0,0,0,0,2,2,2,2,2,2,2,0.5,0,0,0,0,2,2,2,2,2,2,2,0.5,burgerking,0
5,Buona Vista Community Club,1.3094603,103.7926982,3,5,6,0,3,5,6,0,3,5,6,0,3,5,6,0,3,5,6,0,0,0,0,0,2,2,2,2,2,2,2,0,0,0,0,0,2,2,2,2,2,2,2,0,burgerking,0
6,Burlington Square,1.3021885,103.8527583,3,5,6,1,3,5,6,1,3,5,6,1,3,5,6,1,3,5,6,1,0,0,0,0,2,2,2,2,2,2,2,1,0,0,0,0,2,2,2,2,2,2,2,1,burgerking,0
7,Central,1.2893005,103.8470263,3,5,6,1,3,5,6,1,3,5,6,1,3,5,6,1,3,5,6,2,0,0,0,0,2,2,2,2,2,2,2,2,0,0,0,0,2,2,2,2,2,2,2,1,burgerking,0
8,Changi Airport Terminal 1 Transit West,1.361813,103.9902721,4,5,6,9,4,5,6,9,4,5,6,9,4,5,6,9,4,5,6,9,2,2,2,2,2,2,2,2,2,2,2,2,2,2,2,2,2,2,2,2,2,2,2,2,burgerking,0
9,Changi Airport Terminal 1 Viewing Mall East,1.3628685,103.9894943,4,5,6,9,4,5,6,9,4,5,6,9,4,5,6,9,4,5,6,9,2,2,2,2,2,2,2,2,2,2,2,2,2,2,2,2,2,2,2,2,2,2,2,2,burgerking,0
10,Changi Airport Terminal 3 Transit,1.3555805,103.9861962,4,5,6,9,4,5,6,9,4,5,6,9,4,5,6,9,4,5,6,9,2,2,2,2,2,2,2,2,2,2,2,2,2,2,2,2,2,2,2,2,2,2,2,2,burgerking,0
11,Changi Airport Terminal 4 Transit,1.3555805,103.9861962,4,5,6,0,4,5,6,0,4,5,6,0,4,5,6,0,4,5,6,0,0,0,0,1,2,2,2,2,2,2,2,0,0,0,0,1,2,2,2,2,2,2,2,0,burgerking,0
12,Changi Business Park,1.3356287,103.9628977,3,5,6,0,3,5,6,0,3,5,6,0,3,5,6,0,3,5,6,0,0,0,0,0,2,2,2,2,2,2,2,0,0,0,0,0,2,2,2,2,2,2,2,0,burgerking,0
13,Clementi Mall,1.314918,103.7643089,3,5,6,0.5,3,5,6,0.5,3,5,6,0.5,3,5,6,0.5,3,5,6,0.5,0,0,0,0,2,2,2,2,2,2,2,0.5,0,0,0,0,2,2,2,2,2,2,2,0.5,burgerking,0
14,Compass One,1.3922341,103.8954396,3,5,6,1,3,5,6,1,3,5,6,1,3,5,6,1,3,5,6,1,0,0,0,0,2,2,2,2,2,2,2,1,0,0,0,0,2,2,2,2,2,2,2,1,burgerking,0
15,Costal Playgrove,1.2971061,103.8995796,3,5,6,0,3,5,6,0,3,5,6,0,3,5,6,0,3,5,6,2,0,0,0,0,2,2,2,2,2,2,2,2,0,0,0,0,2,2,2,2,2,2,2,0,burgerking,0
16,Eastpoint Mall,1.3428486,103.9532083,3,5,6,0,3,5,6,0,3,5,6,0,3,5,6,0,3,5,6,0,0,0,0,0,2,2,2,2,2,2,2,0,0,0,0,0,2,2,2,2,2,2,2,0,burgerking,0
17,Fairprice Hub,1.326815,103.6789322,4,5,6,0,4,5,6,0,4,5,6,0,4,5,6,0,4,5,6,0,0,0,0,0,2,2,2,2,2,2,2,0,0,0,0,0,2,2,2,2,2,2,2,0,burgerking,0
18,Fernvale Woods,1.3914485,103.8713806,3,5,6,0,3,5,6,0,3,5,6,0,3,5,6,0,3,5,6,0,0,0,0,0,2,2,2,2,2,2,2,0,0,0,0,0,2,2,2,2,2,2,2,0,burgerking,0
19,Heartbeat@Bedok,1.3271175,103.9322493,3,5,6,2,3,5,6,2,3,5,6,2,3,5,6,2,3,5,6,2,0,0,0,0,2,2,2,2,2,2,2,2,0,0,0,0,2,2,2,2,2,2,2,2,burgerking,0
20,Heartland Mall,1.359771,103.8853325,3,5,6,0,3,5,6,0,3,5,6,0,3,5,6,0,3,5,6,1,0,0,0,0,2,2,2,2,2,2,2,1,0,0,0,0,2,2,2,2,2,2,2,0,burgerking,0
21,HillV2,1.3632139,103.7645352,3,5,6,2,3,5,6,2,3,5,6,2,3,5,6,2,3,5,6,2,0,0,0,0,2,2,2,2,2,2,2,2,0,0,0,0,2,2,2,2,2,2,2,2,burgerking,0
22,HomeTeamNS Bedok,1.3414933,103.918978,3,5,6,0,3,5,6,0,3,5,6,0,3,5,6,0,3,5,6,0,0,0,0,0,2,2,2,2,2,2,2,0,0,0,0,0,2,2,2,2,2,2,2,0,burgerking,0
23,HometeamNS@Khatib,1.4147346,103.8310498,3,5,6,0,3,5,6,0,3,5,6,0,3,5,6,0,3,5,6,0,0,0,0,0,2,2,2,2,2,2,2,0,0,0,0,0,2,2,2,2,2,2,2,0,burgerking,0
24,Hougang Rivercourt,1.3632121,103.8952301,3,5,6,0,3,5,6,0,3,5,6,0,3,5,6,0,3,5,6,1,0,0,0,0,2,2,2,2,2,2,2,1,0,0,0,0,2,2,2,2,2,2,2,0,burgerking,0
25,Imm Building,1.3349672,103.7471155,3,5,6,0.5,3,5,6,0.5,3,5,6,0.5,3,5,6,0.5,3,5,6,1,0,0,0,0,2,2,2,2,2,2,2,1,0,0,0,0,2,2,2,2,2,2,2,0.5,burgerking,0
26,Jewel Changi Airport,1.3602082,103.9897593,1,5,6,0,1,5,6,0,1,5,6,0,1,5,6,0,1,5,6,0,0,0,0,0,2,2,2,2,2,2,2,0,0,0,0,0,2,2,2,2,2,2,2,0,burgerking,0
27,Junction 9,1.4332205,103.8414882,3,5,6,0,3,5,6,0,3,5,6,0,3,5,6,0,3,5,6,0,0,0,0,0,2,2,2,2,2,2,2,0,0,0,0,0,2,2,2,2,2,2,2,0,burgerking,0
28,Jurong East Mall,1.3328303,103.7432656,1.5,5,6,0.5,1.5,5,6,0.5,1.5,5,6,0.5,1.5,5,6,0.5,1.5,5,6,0.5,0,0,0,0,2,2,2,2,2,2,2,0.5,0,0,0,0,2,2,2,2,2,2,2,0.5,burgerking,0
29,Jurong Point,1.3388475,103.705229,3,5,6,2,3,5,6,2,3,5,6,2,3,5,6,2,3,5,6,2,0,0,0,0,2,2,2,2,2,2,2,2,0,0,0,0,2,2,2,2,2,2,2,2,burgerking,0
30,Kallang Leisure Park,1.3019217,103.8765378,1,5,6,0,1,5,6,0,1,5,6,0,1,5,6,0,1,5,6,0,0,0,0,0,2,2,2,2,2,2,2,0,0,0,0,0,2,2,2,2,2,2,2,0,burgerking,0
31,Keat Hong Community Centre,1.3842843,103.7448704,3,5,6,2,3,5,6,2,3,5,6,2,3,5,6,2,3,5,6,2,0,0,0,0,2,2,2,2,2,2,2,2,0,0,0,0,2,2,2,2,2,2,2,2,burgerking,0
32,Kebun Baru Community Club,1.3732762,103.8373707,1,5,6,1,1,5,6,1,1,5,6,1,1,5,6,1,1,5,6,1,0,0,0,0,2,2,2,2,2,2,2,1,0,0,0,0,2,2,2,2,2,2,2,1,burgerking,0
33,Kent Ridge Centre,1.2938584,103.7845762,4,5,6,0,4,5,6,0,4,5,6,0,4,5,6,0,4,5,6,0,0,0,0,1,2,2,2,2,2,2,2,0,0,0,0,1,2,2,2,2,2,2,2,0,burgerking,0
34,Kinex,1.3149417,103.8945413,3,5,6,0,3,5,6,0,3,5,6,0,3,5,6,0,3,5,6,0,0,0,0,0,2,2,2,2,2,2,2,0,0,0,0,0,2,2,2,2,2,2,2,0,burgerking,0
35,Kitchener Complex,1.3082434,103.8623616,4,5,6,2,4,5,6,2,4,5,6,2,4,5,6,2,4,5,6,2,0,0,0,1,2,2,2,2,2,2,2,2,0,0,0,1,2,2,2,2,2,2,2,2,burgerking,0
36,Link@896 Dunearn Road,1.3366304,103.7833461,3,5,6,2,3,5,6,2,3,5,6,2,3,5,6,2,3,5,6,2,0,0,0,0,2,2,2,2,2,2,2,2,0,0,0,0,2,2,2,2,2,2,2,2,burgerking,0
37,Loyang Point,1.3665937,103.9641179,3,5,6,2,3,5,6,2,3,5,6,2,3,5,6,2,3,5,6,2,0,0,0,0,2,2,2,2,2,2,2,2,0,0,0,0,2,2,2,2,2,2,2,2,burgerking,0
38,Marina Bay Link Mall,1.2807557,103.8535776,3,5,4.5,0,3,5,4.5,0,3,5,4.5,0,3,5,4.5,0,3,5,4.5,0,0,0,0,0,0,0,0,0,0,0,0,0,0,0,0,0,0,0,0,0,0,0,0,0,burgerking,0
39,Marina Square,1.2912061,103.8576768,0,0,0,0,0.5,5,5,0,0.5,5,5,0,0.5,5,5,0,1,5,6,0.5,0,0,0,0,0,1.5,2,2,2,2,2,0.5,0,0,0,0,0,1.5,2,2,2,2,2,0.5,burgerking,0
40,Marsiling Mall,1.4334272,103.7797206,3.5,5,6,2,3.5,5,6,2,3.5,5,6,2,3.5,5,6,2,3.5,5,6,2,0,0,0,0.5,2,2,2,2,2,2,2,2,0,0,0,0.5,2,2,2,2,2,2,2,2,burgerking,0
41,NEX,1.3507723,103.8722585,3,5,6,2,3,5,6,2,3,5,6,2,3,5,6,2,3,5,6,2,0,0,0,0,2,2,2,2,2,2,2,2,0,0,0,0,2,2,2,2,2,2,2,2,burgerking,0
42,Parkway Parade,1.3020566,103.90524,3,5,6,0,3,5,6,0,3,5,6,0,3,5,6,0,3,5,6,0,0,0,0,0,2,2,2,2,2,2,2,0,0,0,0,0,2,2,2,2,2,2,2,0,burgerking,0
43,Pasir Ris Sport Centre,1.3740876,103.9519247,3,5,6,2,3,5,6,2,3,5,6,2,3,5,6,2,3,5,6,2,0,0,0,0,2,2,2,2,2,2,2,2,0,0,0,0,2,2,2,2,2,2,2,2,burgerking,0
44,Paya Lebar Square,1.3184573,103.8921203,3,5,6,2,3,5,6,2,3,5,6,2,3,5,6,2,3,5,6,2,0,0,0,0,2,2,2,2,2,2,2,2,0,0,0,0,2,2,2,2,2,2,2,2,burgerking,0
45,Plaza Singapura,1.3005317,103.8452356,1,5,6,0.5,1,5,6,0.5,1,5,6,0.5,1,5,6,0.5,1,5,6,0.5,0,0,0,0,1.5,2,2,2,2,2,2,0.5,0,0,0,0,1.5,2,2,2,2,2,2,0.5,burgerking,0
46,Seletar Mall,1.3911218,103.8759148,3,5,6,2,3,5,6,2,3,5,6,2,3,5,6,2,3,5,6,2,0,0,0,0,2,2,2,2,2,2,2,2,0,0,0,0,2,2,2,2,2,2,2,2,burgerking,0
47,Sembawang Shopping Centre,1.4419459,103.8250936,2.5,5,6,1,2.5,5,6,1,2.5,5,6,1,2.5,5,6,1,2.5,5,6,1,0,0,0,0,1.5,2,2,2,2,2,2,1,0,0,0,0,1.5,2,2,2,2,2,2,1,burgerking,0
48,Suntec City Mall,1.2957055,103.8597298,0.5,5,5,0,0.5,5,5,0,0.5,5,5,0,0.5,5,5,0,0.5,5,6,1.5,0,0,0,0,0,1.5,2,2,2,2,2,1.5,0,0,0,0,0,1.5,2,2,2,2,1,0,burgerking,0
49,Tampines Mall,1.3524936,103.9447179,3,5,6,2,3,5,6,2,3,5,6,2,3,5,6,2,3,5,6,2,0,0,0,0,2,2,2,2,2,2,2,2,0,0,0,0,2,2,2,2,2,2,2,2,burgerking,0
50,Thomson Plaza,1.3545251,103.8315792,1,5,6,0,1,5,6,0,1,5,6,0,1,5,6,0,1,5,6,0,0,0,0,0,2,2,2,2,2,2,2,0,0,0,0,0,2,2,2,2,2,2,2,0,burgerking,0
51,Tiong Bahru Plaza,1.2862911,103.8276799,3,5,6,0,3,5,6,0,3,5,6,0,3,5,6,0,3,5,6,0,0,0,0,0,2,2,2,2,2,2,2,0,0,0,0,0,2,2,2,2,2,2,2,0,burgerking,0
52,Toa Payoh,1.3325864,103.8478421,3.5,5,6,2,3.5,5,6,2,3.5,5,6,2,3.5,5,6,2,3.5,5,6,2,0,0,0,0.5,2,2,2,2,2,2,2,2,0,0,0,0.5,2,2,2,2,2,2,2,2,burgerking,0
53,United Square Shopping Centre,1.3175985,103.8437303,3,5,6,0,3,5,6,0,3,5,6,0,3,5,6,0,3,5,6,0,0,0,0,0,2,2,2,2,2,2,2,0,0,0,0,0,2,2,2,2,2,2,2,0,burgerking,0
54,VIVA Business Park,1.322751,103.9222272,3,5,6,1,3,5,6,1,3,5,6,1,3,5,6,1,3,5,6,1,0,0,0,0,2,2,2,2,2,2,2,1,0,0,0,0,2,2,2,2,2,2,2,1,burgerking,0
55,Vivo City,1.2638071,103.8215987,1,5,6,0,1,5,6,0,1,5,6,0,1,5,6,0,1,5,6,0,0,0,0,0,1.5,2,2,2,2,2,2,0,0,0,0,0,1.5,2,2,2,2,2,2,0,burgerking,0
56,Waterway Point,1.40669,103.9021738,3,5,6,0,3,5,6,0,3,5,6,0,3,5,6,0,3,5,6,1,0,0,0,0,2,2,2,2,2,2,2,1,0,0,0,0,2,2,2,2,2,2,2,0,burgerking,0
57,West Coast Community Club,1.3026244,103.7648151,3,5,6,2,3,5,6,2,3,5,6,2,3,5,6,2,3,5,6,2,0,0,0,0,2,2,2,2,2,2,2,2,0,0,0,0,2,2,2,2,2,2,2,2,burgerking,0
58,West Mall,1.3500111,103.7492852,3,5,6,0,3,5,6,0,3,5,6,0,3,5,6,0,3,5,6,0,0,0,0,0,2,2,2,2,2,2,2,0,0,0,0,0,2,2,2,2,2,2,2,0,burgerking,0
59,Wisteria Mall,1.418208,103.8411267,3,5,6,0,3,5,6,0,3,5,6,0,3,5,6,0,3,5,6,0,0,0,0,0,2,2,2,2,2,2,2,0,0,0,0,0,2,2,2,2,2,2,2,0,burgerking,0
60,Yishun Town Square,1.4264002,103.8362947,3,5,6,2,3,5,6,2,3,5,6,2,3,5,6,2,3,5,6,2,0,0,0,0,2,2,2,2,2,2,2,2,0,0,0,0,2,2,2,2,2,2,2,2,burgerking,0
61,Tiong Hoe Specialty Coffee,1.2909339,103.8031046,3,5,0.75,0,3,5,0.75,0,3,5,0.75,0,3,5,0.75,0,3,5,0.75,0,0,0,0,0,1.5,2,2,2,0.25,0,0,0,0,0,0,0,1.5,2,2,2,0.25,0,0,0,coffeeshop,1
62,Olla Specialty Coffee (Sunset Way),1.3224111,103.7702888,3,5,1,0,3,5,1,0,3,5,1,0,3,5,1,0,3,5,1,0,0,0,0,0,2,2,2,2,1,0,0,0,0,0,0,0,2,2,2,2,1,0,0,0,coffeeshop,1
63,S11 Coffee Shop,1.3041079,103.7634623,2,5,6,1,2,5,6,1,2,5,6,1,2,5,6,1,2,5,6,1,0,0,0,0,1,2,2,2,2,2,2,1,0,0,0,0,1,2,2,2,2,2,2,1,coffeeshop,1
64,Rookie's Coffee Shop,1.2860246,103.8034775,0,0,0,0,1,5,1,0,1,5,1,0,1,5,1,0,1,5,1,0,0,0,0,0,0,2,2,2,2,0,0,0,0,0,0,0,0,2,2,2,2,0,0,0,coffeeshop,1
65,Flash Coffee,1.3399257,103.7062886,3,5,5,0,3,5,5,0,3,5,5,0,3,5,5,0,3,5,5,0,0,0,0,0,2,2,2,2,2,2,1,0,0,0,0,0,2,2,2,2,2,2,1,0,coffeeshop,1
66,The Coffee Roaster Cafe @ NUS,1.295979,103.7720608,3,5,1.5,0,3,5,1.5,0,3,5,1.5,0,3,5,1.5,0,3,5,1.5,0,0,0,0,0,0,0,0,0,0,0,0,0,0,0,0,0,0,0,0,0,0,0,0,0,coffeeshop,1
67,Dapper Coffee,1.280295,103.846695,1,5,1,0,1,5,1,0,1,5,1,0,1,5,1,0,1,5,1,0,0,0,0,0,0,0,0,0,0,0,0,0,0,0,0,0,0,0,0,0,0,0,0,0,coffeeshop,1
68,Singapore Coffee,1.295322,103.8535914,2,5,2,0,2,5,2,0,2,5,2,0,2,5,2,0,2,5,2,0,0,0,0,0,1,2,2,2,2,0,0,0,0,0,0,0,1,2,2,2,2,0,0,0,coffeeshop,1
69,Beng Huat Coffee Stall,1.3039613,103.7643361,0,0,0,0,4,5,6,3,4,5,6,3,4,5,6,3,4,5,6,3,0,0,0,2,2,2,2,2,2,2,2,2,0,0,0,2,2,2,2,2,2,2,2,2,coffeeshop,1
70,Huggs Coffee,1.2998553,103.7877818,2.5,5,1.5,0,2.5,5,1.5,0,2.5,5,1.5,0,2.5,5,1.5,0,2.5,5,1.5,0,0,0,0,0,1,2,2,1,0,0,0,0,0,0,0,0,0,0,0,0,0,0,0,0,coffeeshop,1
71,108 Coffee,1.3297026,103.6809308,0.5,5,5.5,0,0.5,5,5.5,0,0.5,5,5.5,0,0.5,5,5.5,0,0.5,5,5.5,0,0,0,0,0,1,2,2,2,2,2,1,0,0,0,0,0,0,1.5,2,2,2,2,1.5,0,coffeeshop,1
72,The Coffee Bean and Tea Leaf,1.339477,103.707023,4,5,6,9,4,5,6,9,4,5,6,9,4,5,6,9,4,5,6,9,2,2,2,2,2,2,2,2,2,2,2,2,2,2,2,2,2,2,2,2,2,2,2,2,coffeeshop,1
73,% Arabica Coffee Chip Bee Gardens,1.3117648,103.7967824,3,5,2,0,3,5,2,0,3,5,2,0,3,5,2,0,3,5,3,0,0,0,0,0,2,2,2,2,2,1,0,0,0,0,0,0,2,2,2,2,2,0,0,0,coffeeshop,1
74,Venture Drive Coffee,1.2863092,103.8035736,1,5,0.5,0,1,5,2,0,1,5,2,0,1,5,2,0,1,5,2,0,0,0,0,0,0,2,2,2,2,0,0,0,0,0,0,0,0,2,2,2,2,0,0,0,coffeeshop,1
75,MAXI COFFEE BAR,1.2814479,103.8453132,3,5,1,0,3,5,1,0,3,5,1,0,3,5,1,0,3,5,1,0,0,0,0,0,1,2,2,2,1,0,0,0,0,0,0,0,1,2,2,2,1,0,0,0,coffeeshop,1
76,Tiong Hoe Specialty Coffee at Super Simple,1.299869,103.7880218,3,4.75,0,0,3,4.75,0,0,3,4.75,0,0,3,4.75,0,0,3,4.75,0,0,0,0,0,0,0,0,0,0,0,0,0,0,0,0,0,0,0,0,0,0,0,0,0,0,coffeeshop,1
77,Maxx Coffee,1.2967176,103.7737043,2,5,2,0,2,5,1,0,2,5,2,0,2,5,2,0,2,5,2,0,0,0,0,0,0,0,0,0,0,0,0,0,0,0,0,0,0,0,0,0,0,0,0,0,coffeeshop,1
78,Little Big Coffee Roasters,1.3021485,103.793071,3,5,0,0,3,5,0,0,3,5,0,0,3,5,0,0,3,5,0,0,0,0,0,0,0,0,0,0,0,0,0,0,0,0,0,0,0,0,0,0,0,0,0,0,coffeeshop,1
79,Bub Coffee,1.2923674,103.7865077,2.5,5,1.5,0,2.5,5,1.5,0,2.5,5,1.5,0,2.5,5,1.5,0,2.5,5,1.5,0,0,0,0,0,0,0,0,0,0,0,0,0,0,0,0,0,0,0,0,0,0,0,0,0,coffeeshop,1
80,Old Hen Coffee Bar,1.3143733,103.8542,1.5,5,2,0,1.5,5,2,0,1.5,5,2,0,1.5,5,2,0,1.5,5,2,0,0,0,0,0,0.5,2,2,2,2,0,0,0,0,0,0,0,0.5,2,2,2,2,0,0,0,coffeeshop,1
81,The Coffee Bean and Tea Leaf - Alexandra Retail Centre (ARC),1.2736494,103.8015297,3.5,5,5,0,3.5,5,5,0,3.5,5,5,0,3.5,5,5,0,3.5,5,5,0,0,0,0,0,2,2,2,2,2,2,1,0,0,0,0,0,2,2,2,2,2,2,1,0,coffeeshop,1
82,Detian Coffee Shop,1.2863873,103.8094205,4,5,6,9,4,5,6,9,4,5,6,9,4,5,6,9,4,5,6,9,2,2,2,2,2,2,2,2,2,2,2,2,2,2,2,2,2,2,2,2,2,2,2,2,coffeeshop,1
83,MAVRX Coffee Bar,1.2930308,103.8322548,3,5,1.5,0,3,5,1.5,0,3,5,1.5,0,3,5,1.5,0,3,5,1.5,0,0,0,0,0,2,2,2,2,1.5,0,0,0,0,0,0,0,2,2,2,2,1.5,0,0,0,coffeeshop,1
84,Homeground Coffee Roasters,1.2800761,103.8408192,2,5,2,0,2,5,2,0,2,5,2,0,2,5,2,0,2,5,2,0,0,0,0,0,1,2,2,2,2,0,0,0,0,0,0,0,1,2,2,2,2,0,0,0,coffeeshop,1
85,1st stop Coffee shop,1.3068815,103.7973408,3,5,5,0,2,5,5.5,0,2,5,5.5,0,3,5,5,0,2,5,5.5,0,0,0,0,0,1,2,2,2,2,2,1.5,0,0,0,0,0,1,2,2,2,2,2,1.5,0,coffeeshop,1
86,Kopi Soh (Xing Wang Coffee),1.2933203,103.8029714,4,4,0,2,4,4,0,2,4,4,0,2,0,0,0,0,4,4,0,2,0,0,1,2,2,2,2,1,0,0,0,0,0,0,1,2,2,2,2,1,0,0,0,0,coffeeshop,1
87,Flash Coffee,1.2777047,103.8008548,3.5,4,0.5,0,3.5,4,0.5,0,3.5,4,0.5,0,3.5,4,0.5,0,3.5,3.5,0,0,0,0,0,0,0,0,0,0,0,0,0,0,0,0,0,0,0,0,0,0,0,0,0,0,coffeeshop,1
88,Paik's Coffee @ Mapletree Business City,1.2756218,103.8001033,2.5,5,4,0,2.5,5,4,0,2.5,5,4,0,2.5,5,4,0,2.5,5,4,0,0,0,0,0,0,0,0,0,0,0,0,0,0,0,0,0,0,0,0,0,0,0,0,0,coffeeshop,1
89,The Coffee Bean and Tea Leaf - Palawan Beach,1.2510669,103.817695,3,5,6,0,3,5,6,0,3,5,6,0,3,5,6,0,3,5,6,0.5,0,0,0,0,2,2,2,2,2,2,2,0.5,0,0,0,0,2,2,2,2,2,2,2,0,coffeeshop,1
90,Baristart Coffee Singapore,1.2540393,103.8146173,2,5,1,0,2,5,1,0,2,5,1,0,2,5,1,0,2,5,1,0,0,0,0,0,1,2,2,2,2,1,0,0,0,0,0,0,1,2,2,2,2,1,0,0,coffeeshop,1
91,DOUBLE SHOT COFFEE,1.2739078,103.8463478,3,5,1,0,3,5,1,0,3,5,1,0,3,5,1,0,3,5,1,0,0,0,0,0,1,2,2,1,0,0,0,0,0,0,0,0,0,0,0,0,0,0,0,0,coffeeshop,1
92,Huggs Coffee,1.279594,103.847335,4,5,1,0,4,5,1,0,4,5,1,0,4,5,1,0,4,5,1,0,0,0,0,0,0,0,0,0,0,0,0,0,0,0,0,0,0,0,0,0,0,0,0,0,coffeeshop,1
93,Toby's Estate Coffee Roasters,1.2899494,103.8373996,3.5,5,1,0,3.5,5,1,0,3.5,5,1,0,3.5,5,1,0,3.5,5,1,0,0,0,0,0.5,2,2,2,2,1,0,0,0,0,0,0,0.5,2,2,2,2,1,0,0,0,coffeeshop,1
94,Tiong Hoe Specialty Coffee (VivoCity),1.2647884,103.822894,3,5,3.75,0,3,5,3.75,0,3,5,3.75,0,3,5,3.75,0,3,5,3.75,0,0,0,0,0,2,2,2,2,2,1.75,0,0,0,0,0,0,2,2,2,2,2,1.75,0,0,coffeeshop,1
95,"Bgain 10, Old Street Coffee House",1.2776132,103.819867,4,5,6,9,4,5,6,9,4,5,6,9,4,5,6,9,4,5,6,9,2,2,2,2,2,2,2,2,2,2,2,2,2,2,2,2,2,2,2,2,2,2,2,2,coffeeshop,1
96,The Coffee Bean and Tea Leaf - 211 Café,1.2819467,103.8195929,3,5,3,0,3,5,3,0,3,5,3,0,3,5,3,0,3,5,3,0,0,0,0,0,0,0,0,0,0,0,0,0,0,0,0,0,0,0,0,0,0,0,0,0,coffeeshop,1
97,Common Man Coffee Roasters Quayside Isle,1.2471056,103.8422382,3.5,5,1,0,3.5,5,5,0,3.5,5,5,0,3.5,5,5,0,3.5,5,5,0,0,0,0,0.5,2,2,2,2,1,2,2,0,0,0,0,0.5,2,2,2,2,1,2,2,0,coffeeshop,1
98,Coffee Hive (168 Robinson Rd),1.2777366,103.8476215,4,5,2,0,4,5,2,0,4,5,2,0,4,5,2,0,4,5,2,0,0,0,0,0,0,0,0,0,0,0,0,0,0,0,0,0,0,0,0,0,0,0,0,0,coffeeshop,1
99,Local Coffee People International Plaza,1.275868,103.8461239,3.5,5,1,0,3.5,5,1,0,3.5,5,1,0,3.5,5,1,0,3.5,5,1,0,0,0,0,0,0,0,0,0,0,0,0,0,0,0,0,0,0,0,0,0,0,0,0,0,coffeeshop,1
100,Flash Coffee,1.2787713,103.8484376,4,5,2,0,4,5,2,0,4,5,2,0,4,5,2,0,4,5,2,0,0,0,0,0,2,2,2,2,0,0,0,0,0,0,0,0,2,2,2,2,0,0,0,0,coffeeshop,1
101,The Populus,1.2782503,103.8406393,2,5,2.5,0,2,5,2.5,0,2,5,2.5,0,2,5,2.5,0,2,5,5.5,0,0,0,0,0,1,2,2,2,2,2,1.5,0,0,0,0,0,1,2,2,2,2,0.5,0,0,coffeeshop,1
102,Baristart Coffee Singapore,1.2777382,103.844417,2,5,6,0,2,5,6,0,2,5,6,0,2,5,6,0,2,5,6,0,0,0,0,0,1,2,2,2,2,2,2,0,0,0,0,0,1,2,2,2,2,2,2,0,coffeeshop,1
103,The Coffee Bean and Tea Leaf - International Plaza,1.2756998,103.8458098,4,5,6,9,4,5,6,9,4,5,6,9,4,5,6,9,4,5,6,9,2,2,2,2,2,2,2,2,2,2,2,2,2,2,2,2,2,2,2,2,2,2,2,2,coffeeshop,1
104,Flash Coffee,1.2806443,103.8538947,3.5,5,1,0,3.5,5,1,0,3.5,5,1,0,3.5,5,1,0,3.5,5,0,0,0,0,0,0,0,0,0,0,0,0,0,0,0,0,0,0,0,0,0,0,0,0,0,0,coffeeshop,1
105,Grey Area Coffee Roasters,1.2772183,103.8367295,3,5,1,0,3,5,1,0,3,5,1,0,3,5,1,0,3,5,1,0,0,0,0,0,1,2,2,2,2,0,0,0,0,0,0,0,1,2,2,2,2,0,0,0,coffeeshop,1
106,Alchemist International Plaza,1.276175,103.846023,3,5,1,0,3,5,1,0,3,5,1,0,3,5,1,0,3,5,1,0,0,0,0,0,0,0,0,0,0,0,0,0,0,0,0,0,0,0,0,0,0,0,0,0,coffeeshop,1
107,Flash Coffee,1.276659,103.8452682,3,5,1,0,3,5,1,0,3,5,1,0,3,5,1,0,3,5,1,0,0,0,0,0,2,2,2,2,1,0,0,0,0,0,0,0,2,2,2,2,1,0,0,0,coffeeshop,1
108,Butler Koffee,1.2870399,103.8454289,3,5,2,0,3,5,2,0,3,5,2,0,3,5,2,0,3,5,2,0,0,0,0,0,2,2,2,2,2,0,0,0,0,0,0,0,2,2,2,2,2,0,0,0,coffeeshop,1
109,Highlander Coffee Espresso Bar,1.2767737,103.8361343,2,5,0,0,2,5,0,0,2,5,0,0,2,5,0,0,2,5,0,0,0,0,0,0,1,2,2,2,0,0,0,0,0,0,0,0,0,0,0,0,0,0,0,0,coffeeshop,1
110,Jewel Coffee (Collyer Quay),1.2840336,103.8524157,3.5,5,1,0,3.5,5,1,0,3.5,5,1,0,3.5,5,1,0,3.5,5,1,0,0,0,0,0,0,0,0,0,0,0,0,0,0,0,0,0,0,0,0,0,0,0,0,0,coffeeshop,1
111,Upshot Specialty Coffee,1.2844024,103.8509818,2,5,1.5,0,2,5,1.5,0,2,5,1.5,0,2,5,1.5,0,2,5,1.5,0,0,0,0,0,0.5,2,2,2,0.5,0,0,0,0,0,0,0,0,0,0,0,0,0,0,0,coffeeshop,1
112,Specialty Coffee Singapore,1.2780372,103.8479565,1.5,5,1.5,0,1.5,5,1.5,0,1.5,5,1.5,0,1.5,5,1.5,0,1.5,5,1.5,0,0,0,0,0,0.5,2,2,2,1.5,0,0,0,0,0,0,0,0.5,2,2,2,1.5,0,0,0,coffeeshop,1
113,Plus Coffee Joint,1.2823205,103.8448776,1,5,1,0,1,5,1,0,1,5,1,0,1,5,1,0,1,5,1,0,0,0,0,0,0,2,2,2,1,0,0,0,0,0,0,0,0,2,2,2,1,0,0,0,coffeeshop,1
114,Khoon Coffeehouse,1.3035749,103.625995,4,5,2,1,4,5,2,1,4,5,2,1,4,5,2,1,4,5,2,1,0,0,0,2,2,2,2,1,0,0,0,0,0,0,0,0,0,0,0,0,0,0,0,0,coffeeshop,1
115,Tuas 88 Eating House,1.2891734,103.6232113,4,5,3.5,0.5,4,5,3.5,0.5,4,5,3.5,0.5,4,5,3.5,0.5,4,5,3.5,0.5,0,0,0,1.5,2,2,2,2,2,1.5,0,0,0,0,0,1,2,2,2,2,2,0,0,0,coffeeshop,1
116,QI KOPI PTE LTD,1.2720254,103.6334699,1,5,6,0.5,1,5,6,0.5,1,5,6,0.5,1,5,6,0.5,1,5,6,0.5,0,0,0,0,0,2,2,2,2,2,2,0.5,0,0,0,0,0,2,2,2,2,2,2,0.5,coffeeshop,1
117,Foodprints 24hours Coffeeshop @ Tuas Amenity Centre,1.3170247,103.6523929,4,5,6,9,4,5,6,9,4,5,6,9,4,5,6,9,4,5,6,9,2,2,2,2,2,2,2,2,2,2,2,2,2,2,2,2,2,2,2,2,2,2,2,2,coffeeshop,1
118,Broadway coffeeshop @ 60 Gul lane,1.3141927,103.6621941,4,5,3,1.5,4,5,3,1.5,4,5,3,1.5,4,5,3,1.5,4,5,3,1.5,0,0,,2,2,2,2,2,0,0,0,0,0,0,,2,2,2,2,1,0,0,0,0,coffeeshop,1
119,Joo Koon Kopi,1.3255105,103.6691691,4,5,3,1,4,5,3,1,4,5,3,1,4,5,3,1,4,5,3,1,0,0,0,2,2,2,2,2,2,1,0,0,0,0,0,2,2,2,2,0,0,0,0,0,coffeeshop,1
120,851 Coffeeshop,1.3466405,103.6925481,4,5,6,1.5,4,5,6,1.5,4,5,6,1.5,4,5,6,1.5,4,5,6,1.5,0,0,0,1.5,2,2,2,2,2,2,2,1,0,0,0,1.5,2,2,2,2,2,2,2,1,coffeeshop,1
121,Soon Lee Coffee House,1.329487,103.7004753,4,5,6,2,4,5,6,2,4,5,6,2,4,5,6,2,4,5,6,2,0,0,0,2,2,2,2,2,2,2,2,0.5,0,0,0,0,0,0,0,0,1,2,2,0.5,coffeeshop,1
122,Deli G Coffeehouse,1.330797,103.6472948,4,5,6,1.5,4,5,6,1.5,4,5,6,1.5,4,5,6,1.5,4,5,6,1.5,0,0,0,2,2,2,2,2,2,2,2,0,0,0,0,2,2,2,2,2,2,2,2,0,coffeeshop,1
123,1983 Coffee & Toast,1.3271791,103.6789156,3,5,5,0,3,5,5,0,3,5,5,0,3,5,5,0,3,5,5,0,0,0,0,0,2,2,2,2,2,2,1,0,0,0,0,0,2,2,2,2,2,2,1,0,coffeeshop,1
124,Pioneer Sector 2 Coffeeshop,1.3062892,103.6574895,3,5,1,0,3,5,1,0,3,5,1,0,3,5,1,0,3,5,1,0,0,0,0,0,2,2,2,2,1,0,0,0,0,0,0,0,2,2,2,2,1,0,0,0,coffeeshop,1
125,Coffee Specialty Roaster Pte Ltd,1.3296279,103.7111095,2,5,2,0,2,5,2,0,2,5,2,0,2,5,2,0,2,5,2,0,0,0,0,0,0,0,0,0,0,0,0,0,0,0,0,0,0,0,0,0,0,0,0,0,coffeeshop,1
126,Best Coffee Pte Ltd,1.3415015,103.6905323,4,5,6,3.75,4,5,6,3.75,4,5,6,3.75,4,5,6,3.75,4,5,6,3.75,0,0,1,2,2,2,2,2,2,2,2,2,0,0,1,2,2,2,2,2,2,2,2,2,coffeeshop,1
127,The Coffee Bean & Tea Leaf - JEM,1.3335997,103.7433798,3.5,5,6,1,3.5,5,6,1,3.5,5,6,1,3.5,5,6,1,3.5,5,6,1,0,0,0,0.5,2,2,2,2,2,2,2,1,0,0,0,0.5,2,2,2,2,2,2,2,1,coffeeshop,1
128,Broadway Coffee Shop @ 286e Toh Guan,1.3391755,103.745346,4,5,6,3,4,5,6,3,4,5,6,3,4,5,6,3,4,5,6,3,0,0,1,2,2,2,2,2,2,2,2,1,0,0,1,2,2,2,2,2,2,2,2,1,coffeeshop,1
129,Dutch Colony Coffee Co.,1.2988714,103.787253,3,5,2,0,3,5,2,0,3,5,2,0,3,5,2,0,3,5,2,0,0,0,0,0,2,2,2,2,2,0,0,0,0,0,0,0,2,2,2,2,2,0,0,0,coffeeshop,1
130,Coffee Hive (Innovis),1.2987064,103.7886399,4,5,2,0,4,5,2,0,4,5,2,0,4,5,2,0,4,5,2,0,0,0,0,0,0,0,0,0,0,0,0,0,0,0,0,0,0,0,0,0,0,0,0,0,coffeeshop,1
131,Huggs Coffee,1.2934297,103.784535,4,5,1,0,4,5,1,0,4,5,1,0,4,5,1,0,4,5,1,0,0,0,0,0,2,2,2,2,0,0,0,0,0,0,0,0,0,0,0,0,0,0,0,0,coffeeshop,1
132,Mad Roaster @ Depot,1.2813172,103.8105896,2,5,0,0,2,5,0,0,2,5,0,0,2,5,0,0,2,5,0,0,0,0,0,0,1,2,2,2,0,0,0,0,0,0,0,0,1,2,2,2,0,0,0,0,coffeeshop,1
133,Kopifellas Express,1.2974984,103.7875233,4,5,1,1,4,5,1,1,4,5,1,1,4,5,1,1,4,5,1,1,0,0,0,0,0,0,0,0,0,0,0,0,0,0,0,0,0,0,0,0,0,0,0,0,coffeeshop,1
134,Alchemist The Mill,1.2852957,103.8097234,2,5,2,0,2,5,2,0,2,5,2,0,2,5,2,0,2,5,2,0,0,0,0,0,1,2,2,2,2,0,0,0,0,0,0,0,1,2,2,2,2,0,0,0,coffeeshop,1
135,Mei Ya Coffee Corner,1.2932044,103.8028759,4,3,0,0.5,4,3,0,0.5,4,3,0,0.5,4,3,0,0.5,4,3,0,0.5,0,0,0,1.5,2,2,2,0,0,0,0,0,0,0,0,0,0,0,0,0,0,0,0,0,coffeeshop,1
136,Blk 161 Bukit Merah Central Coffee Shop,1.2833708,103.8155885,4,5,6,1,4,5,6,1,4,5,6,1,4,5,6,1,4,5,6,1,0,0,0,2,2,2,2,2,2,2,2,0,0,0,0,2,2,2,2,2,2,2,2,0,coffeeshop,1
137,Starbucks,1.2551476,103.8177767,1,5,2,0,1,5,2,0,1,5,2,0,1,5,2,0,1,5,2,0,0,0,0,0,1,2,2,2,2,0,0,0,0,0,0,0,1,2,2,2,2,0,0,0,coffeeshop,1
138,Huggs Coffee,1.2790372,103.8481999,4,5,1,0,4,5,1,0,4,5,1,0,4,5,1,0,4,5,1,0,0,0,0,0,0,0,0,0,0,0,0,0,0,0,0,0,0,0,0,0,0,0,0,0,coffeeshop,1
139,Singapore Chocolate,1.2471663,103.8422613,3.5,5,0,0,3.5,5,0,0,3.5,5,0,0,3.5,5,0,0,3.5,5,0,0,0,0,0,0.5,2,2,2,2,0,0,0,0,0,0,0,0.5,2,2,2,2,0,0,0,0,coffeeshop,1
140,Flash Coffee,1.2859607,103.8478512,3,4,1,0,3,4,1,0,3,4,1,0,3,4,1,0,3,4,0,0,0,0,0,0,0,0,0,0,0,0,0,0,0,0,0,0,0,0,0,0,0,0,0,0,coffeeshop,1
141,Tuas Pot,1.2696972,103.6275557,2,5,5,0,2,5,5,0,2,5,5,0,2,5,5,0,2,5,5,0,0,0,0,2,2,2,2,2,2,2,1,0,0,0,0,2,2,2,2,2,2,0.5,0,0,coffeeshop,1
142,??????,1.297755,103.6290678,4,5,0,0,4,5,0,0,4,5,0,0,4,5,0,0,4,5,0,0,0,0,0,1,2,2,0,0,0,0,0,0,0,0,0,0,0,0,0,0,0,0,0,0,coffeeshop,1
143,Famous Nasi lemak,1.2725479,103.6374262,4,5,6,1,4,5,6,1,4,5,6,1,4,5,6,1,4,5,6,1,0,0,0,2,2,2,2,2,2,2,2,0,0,0,0,2,2,2,2,2,2,2,2,0,coffeeshop,1
144,9 Plus coffee,1.31298,103.669342,4,5,2,1.5,4,5,2,1.5,4,5,2,1.5,4,5,2,1.5,4,5,2,1.5,0,0,0,2,2,2,2,1,0,0,0,0,0,0,0,0,0,0,0,0,0,0,0,0,coffeeshop,1
145,Kim San Leng,1.3132005,103.7027859,4,5,6,3,4,5,6,3,4,5,6,3,4,5,6,3,4,5,6,3,0,0,0,2,2,2,2,2,2,2,2,2,0,0,0,2,2,2,2,2,2,2,2,2,coffeeshop,1
146,The Coffee Construct,1.330057,103.744683,4,5,0,1,4,5,0,1,4,5,0,1,4,5,0,1,4,5,0,1,0,0,0,0,0,0,0,0,0,0,0,0,0,0,0,0,0,0,0,0,0,0,0,0,coffeeshop,1
147,Biggby Coffee,1.314918,103.7643089,1,5,5,0,1,5,5,0,1,5,5,0,1,5,5,0,1,5,6,0,0,0,0,0,0,2,2,2,2,2,2,0,0,0,0,0,0,2,2,2,2,2,1,0,coffeeshop,1
148,Rong Fa Coffee Shop ??,1.3060097,103.7614218,4,5,6,3,4,5,6,3,4,5,6,3,4,5,6,3,4,5,6,3,0,0,1,2,2,2,2,2,2,2,2,1,0,0,1,2,2,2,2,2,2,2,2,1,coffeeshop,1
149,Anteroom Coffee Brewers,1.3157878,103.8042713,3,5,1,0,3,5,1,0,3,5,1,0,3,5,1,0,3,5,1,0,0,0,0,0,1,2,2,2,1,0,0,0,0,0,0,0,1,2,2,2,1,0,0,0,coffeeshop,1
150,Killiney @ Harbourfront,1.2648188,103.8192714,3.5,5,2.5,0,3.5,5,2.5,0,3.5,5,2.5,0,3.5,5,2.5,0,3.5,5,2.5,0,0,0,0,0,0,0,0,0,0,0,0,0,0,0,0,0,0,0,0,0,0,0,0,0,coffeeshop,1
151,Starbucks,1.256304,103.8199459,3.5,5,5,0,3.5,5,5,0,3.5,5,5,0,3.5,5,5,0,3.5,5,5,0,0,0,0,0.5,2,2,2,2,2,2,1,0,0,0,0,0.5,2,2,2,2,2,2,1,0,coffeeshop,1
152,Starbucks,1.2647211,103.8200969,3.5,5,5,0,3.5,5,5,0,3.5,5,5,0,3.5,5,5,0,3.5,5,5,0,0,0,0,0.5,2,2,2,2,2,2,1,0,0,0,0,0.5,2,2,2,2,2,2,1,0,coffeeshop,1
153,55 Degree Celsius,1.2642175,103.8203582,3,5,2,0,3,5,2,0,3,5,2,0,3,5,2,0,3,5,2,0,0,0,0,0,2,2,1,0,0,0,0,0,0,0,0,0,0,0,0,0,0,0,0,0,coffeeshop,1
154,Starbucks,1.2641825,103.8224849,3,5,6,0,3,5,6,0,3,5,6,0,3,5,6,0,3,5,6,0.5,0,0,0,0,2,2,2,2,2,2,2,0.5,0,0,0,0,2,2,2,2,2,2,2,0,coffeeshop,1
155,Toast Box,1.2640606,103.8223506,2.5,5,5.5,0,2.5,5,5.5,0,2.5,5,5.5,0,2.5,5,5.5,0,2.5,5,5.5,0,0,0,0,0,1.5,2,2,2,2,2,1.5,0,0,0,0,0,1.5,2,2,2,2,2,1.5,0,coffeeshop,1
156,Dimbulah Coffee,1.2647674,103.8180135,3.5,5,2,0,3.5,5,2,0,3.5,5,2,0,3.5,5,2,0,3.5,5,2,0,0,0,0,0,0,0,0,0,0,0,0,0,0,0,0,0,0,0,0,0,0,0,0,0,coffeeshop,1
157,Fun Toast,1.2642175,103.8203582,4,5,4.5,0,4,5,4.5,0,4,5,4.5,0,4,5,4.5,0,4,5,5,0,0,0,0,0.5,2,2,2,2,2,2,1,0,0,0,0,0.5,2,2,2,2,2,2,0.5,0,coffeeshop,1
158,Toast Box,1.26421,103.820236,3,5,2,0,3,5,2,0,3,5,2,0,3,5,2,0,3,5,2,0,0,0,0,0,2,2,2,2,2,0,0,0,0,0,0,0,2,2,2,2,2,0,0,0,coffeeshop,1
159,Nylon Coffee Roasters,1.2768524,103.8400279,0,0,0,0,0,0,0,0,2.5,5,0.5,0,2.5,5,0.5,0,2.5,5,0.5,0,0,0,0,0,1,2,2,2,0.5,0,0,0,0,0,0,0,1,2,2,2,0.5,0,0,0,coffeeshop,1
160,De Tian Coffee House Lokyang Canteen,1.3247955,103.6899572,4,5,3,1,4,5,3,1,4,5,3,1,4,5,3,1,4,5,3,1,0,0,0,0,2,2,2,2,2,0,0,0,0,0,0,0,2,2,2,2,2,0,0,0,coffeeshop,1
161,Kian Teck Eating House,1.3287352,103.69391,4,5,5,1,4,5,5,1,4,5,5,1,4,5,5,1,4,5,5,1,0,0,0,2,2,2,2,2,2,2,1,0,0,0,0,2,2,2,2,2,2,2,1,0,coffeeshop,1
162,Her Chong Eating House,1.3251412,103.6995079,4,5,3,1,4,5,3,1,4,5,3,1,4,5,3,1,4,5,3,1,0,0,0,2,2,2,2,2,0,0,0,0,0,0,0,0,0,0,0,0,0,0,0,0,coffeeshop,1
163,Hb 54 Kopitiam,1.3215361,103.7368947,4,5,6,1,4,5,6,1,4,5,6,1,4,5,6,1,4,5,6,1,0,0,0,2,2,2,2,2,2,2,2,0,0,0,0,2,2,2,2,2,2,2,2,0,coffeeshop,1
164,PG 416 Coffee House,1.3209778,103.748521,4,5,6,0,4,5,6,0,4,5,6,0,4,5,6,0,4,5,6,0,0,0,0,1,2,2,2,2,2,2,2,0,0,0,0,1,2,2,2,2,2,2,2,0,coffeeshop,1
165,Toast Box,1.3034793,103.7655198,3,5,5,0,3,5,5,0,3,5,5,0,3,5,5,0,3,5,5,0,0,0,0,0,2,2,2,2,2,2,1,0,0,0,0,0,2,2,2,2,2,2,1,0,coffeeshop,1
166,Spinelli Coffee Company - The Strategy,1.3297852,103.7470846,2,5,1,0,2,5,1,0,2,5,1,0,2,5,1,0,2,5,1,0,0,0,0,0,0,0,0,0,0,0,0,0,0,0,0,0,0,0,0,0,0,0,0,0,coffeeshop,1
167,Kimly coffeeshop,1.3147943,103.7668341,4,5,6,9,4,5,6,9,4,5,6,9,4,5,6,9,4,5,6,9,2,2,2,2,2,2,2,2,2,2,2,2,2,2,2,2,2,2,2,2,2,2,2,2,coffeeshop,1
168,Eng Lock Koo Coffeeshop,1.2760565,103.7934151,4,5,6,3,4,5,6,4.5,4,5,6,4.5,4,5,6,4.5,4,5,6,4.5,,0,0,2,2,2,2,2,2,2,2,2,,0,0,0,0,0,0,0,0,0,0,0,coffeeshop,1
169,Ji Yue Coffee (????),1.279714,103.7860135,3,5,0.5,0,3,5,0.5,0,3,5,0.5,0,3,5,0.5,0,3,5,0.5,0,0,0,0,0,2,2,2,2,1,0,0,0,0,0,0,0,2,2,2,2,1,0,0,0,coffeeshop,1
170,Beverage Stall,1.2859621,103.8035255,2,5,2,0,2,5,2,0,2,5,2,0,2,5,2,0,2,5,2,0,0,0,0,0,1,2,2,2,2,0,0,0,0,0,0,0,1,2,2,2,2,0,0,0,coffeeshop,1
171,Starbucks,1.2895974,103.7900486,3.5,5,3,0,3.5,5,3,0,3.5,5,3,0,3.5,5,3,0,3.5,5,3,0,0,0,0,0,0,0,0,0,0,0,0,0,0,0,0,0,0,0,0,0,0,0,0,0,coffeeshop,1
172,Par Shi Restaurant Coffeeshop,1.2748403,103.795399,4,5,1,2,4,5,1,2,4,5,1,2,4,5,1,2,4,5,1,2,0,0,1,2,2,2,2,0,0,0,0,0,0,0,0,0,0,0,0,0,0,0,0,0,coffeeshop,1
173,Starbucks,1.2750164,103.7976514,3.5,5,0.5,0,3.5,5,0.5,0,3.5,5,0.5,0,3.5,5,0.5,0,3.5,5,0.5,0,0,0,0,0,0,0,0,0,0,0,0,0,0,0,0,0,0,0,0,0,0,0,0,0,coffeeshop,1
174,Blue Balls Bike Cafe,1.2751876,103.7943112,0,0,0,0,1,5,6,1,1,5,6,1,1,5,6,1,1,5,6,1,0,0,0,1,2,2,2,2,2,2,2,2,0,0,0,1,2,2,2,2,2,2,2,2,coffeeshop,1
175,Fish Ball Noodle / Fish Ball Soup,1.2749144,103.7950421,4,5,2,1.5,4,5,2,1.5,4,5,2,1.5,4,5,2,1.5,4,5,2,1.5,0,0,0,0,0,0,0,0,0,0,0,0,0,0,0,0,0,0,0,0,0,0,0,0,coffeeshop,1
176,Heavenly Wang @ Alexandra Retail Centre,1.2734013,103.8016348,3.5,5,0.5,0,3.5,5,0.5,0,3.5,5,0.5,0,3.5,5,0.5,0,3.5,5,0.5,0,0,0,0,0,1.5,2,2,2,0,0,0,0,0,0,0,0,1.5,2,2,2,0,0,0,0,coffeeshop,1
177,Fusion Twogather,1.2768459,103.796395,3,4,0,0,3,4,0,0,3,4,0,0,3,4,0,0,3,4,0,0,0,0,0,0,0,0,0,0,0,0,0,0,0,0,0,0,0,0,0,0,0,0,0,0,coffeeshop,1
178,FoodBarn Alexandra,1.2776458,103.8002758,3,5,1,0,3,5,1,0,3,5,1,0,3,5,1,0,3,5,1,0,0,0,0,0,0,0,0,0,0,0,0,0,0,0,0,0,0,0,0,0,0,0,0,0,coffeeshop,1
179,1970s Best Coffee,1.2732666,103.8075357,3,3.5,0,0,0,0,0,0,3,3.5,0,0,3,3.5,0,0,3,3.5,0,0,0,0,0,0,2,2,2,,0,0,0,0,0,0,0,0,2,2,2,,0,0,0,0,coffeeshop,1
180,De Tian Coffeshop,1.2717687,103.8099171,4,5,5.5,1,4,5,5.5,1,4,5,5.5,1,4,5,5.5,1,4,5,5.5,1,0,0,0,2,2,2,2,2,2,2,1.5,0,0,0,0,2,2,2,2,2,2,2,1.5,0,coffeeshop,1
181,Ciclo e Caffe,1.269716,103.8139054,0,0,0,0,2,5,6,1,2,5,6,1,2,5,6,1,2,5,6,1,0,0,0,1,2,2,2,2,2,2,2,1,0,0,0,1,2,2,2,2,2,2,2,1,coffeeshop,1
182,Coffee and Tea,1.2732981,103.8092136,4,5,5.5,0,4,5,5.5,0,4,5,5.5,0,4,5,5.5,0,3.5,5,6,0,0,0,0,1,2,2,2,2,2,2,1.5,0,0,0,0,0.5,2,2,2,2,2,2,2,0,coffeeshop,1
183,BGAIN 91 Eating House,1.2763141,103.8068466,4,5,6,1,4,5,6,1,4,5,6,1,4,5,6,1,4,5,6,1,0,0,0,1,2,2,2,2,2,2,2,1,0,0,0,1,2,2,2,2,2,2,2,1,coffeeshop,1
184,Wonderful Coffee Shop,1.2744454,103.8255862,4,5,6,2,4,5,6,2,4,5,6,2,4,5,6,2,4,5,6,2,0,0,0,2,2,2,2,2,2,2,2,1,0,0,0,2,2,2,2,2,2,2,2,1,coffeeshop,1
185,148 Coffeshop,1.2769729,103.8311407,3,5,3.5,0,2,5,4.5,0,3,5,3.5,0,2,5,4.5,0,2,5,4.5,0,0,0,0,0,1,2,2,2,2,2,0.5,0,0,0,0,0,0,2,2,2,2,2,1,0,coffeeshop,1
186,Ober Coffee Co.,1.2647934,103.8192617,3.5,5,0.5,0,3.5,5,0.5,0,3.5,5,0.5,0,3.5,5,0.5,0,3.5,5,0.5,0,0,0,0,0,0,0,0,0,0,0,0,0,0,0,0,0,0,0,0,0,0,0,0,0,coffeeshop,1
187,Flash Coffee,1.2648866,103.8182751,3.5,4,0.5,0,3.5,4,0.5,0,3.5,4,0.5,0,3.5,4,0.5,0,3.5,3.5,0,0,0,0,0,0,0,0,0,0,0,0,0,0,0,0,0,0,0,0,0,0,0,0,0,0,coffeeshop,1
188,Yi Jia Food House,1.2739482,103.8252941,4,5,6,1,4,5,6,1,4,5,6,1,4,5,6,1,4,5,6,1,0,0,0,2,2,2,2,2,2,2,2,0,0,0,0,2,2,2,2,2,2,2,2,0,coffeeshop,1
189,Butter Bean,1.2650509,103.821637,3,5,5,0,3,5,5,0,3,5,5,0,3,5,5,0,3,5,5.5,0,0,0,0,0,2,2,2,2,2,2,1.5,0,0,0,0,0,2,2,2,2,2,2,1,0,coffeeshop,1
190,Yellow Cafe,1.2755536,103.8411668,1.5,5,4,0,1.5,5,4,0,1.5,5,4,0,1.5,5,4,0,1.5,5,4,0,0,0,0,0,0.5,2,2,2,2,2,0,0,0,0,0,0,0,0,0,0,0,0,0,0,coffeeshop,1
191,Equate Coffee Tanjong Pagar,1.2748632,103.8426344,2.5,5,1.5,0,2.5,5,1.5,0,2.5,5,1.5,0,2.5,5,1.5,0,2.5,5,1.5,0,0,0,0,0,1.5,2,2,1,0,0,0,0,0,0,0,0,0,0,0,0,0,0,0,0,coffeeshop,1
192,Glass Roasters,1.276695,103.8394141,0,0,0,0,2,5,1.5,0,2,5,1.5,0,2,5,1.5,0,2,5,1.5,0,0,0,0,0,1,2,2,2,1.5,0,0,0,0,0,0,0,1,2,2,2,1.5,0,0,0,coffeeshop,1
193,Old Chang Kee Coffee House,1.2752938,103.8429773,3.5,5,5,0,3.5,5,5,0,3.5,5,5,0,3.5,5,5,0,3.5,5,5,0,0,0,0,0,2,2,2,2,2,2,1,0,0,0,0,0,2,2,2,2,2,2,1,0,coffeeshop,1
194,Trung Nguyen Coffee Singapore,1.2756998,103.8458098,2,5,5,0,2,5,5,0,2,5,5,0,2,5,5,0,2,5,5,0,0,0,0,0,1,2,2,2,2,2,0,0,0,0,0,0,1,2,2,2,2,0,0,0,coffeeshop,1
195,abseil,1.2739068,103.8462175,2.5,5,1.5,0,0,0,0,0,2.5,5,1.5,0,2.5,5,1.5,0,2.5,5,1.5,0,0,0,0,0,0.5,2,2,2,1.5,0,0,0,0,0,0,0,0.5,2,2,2,1.5,0,0,0,coffeeshop,1
196,Starbucks,1.2744615,103.8433528,3.5,5,6,0,3.5,5,6,0,3.5,5,6,0,3.5,5,6,0,3.5,5,6,0,0,0,0,0,2,2,2,2,2,2,2,0,0,0,0,0,2,2,2,2,2,2,2,0,coffeeshop,1
197,Starbucks,1.2767043,103.8450099,4,5,5,0,4,5,5,0,4,5,5,0,4,5,5,0,4,5,5,0,0,0,0,0,2,2,2,2,2,2,0,0,0,0,0,0,2,2,2,2,2,2,0,0,coffeeshop,1
198,Coffee-Hugg Junction Pte Ltd,1.2760566,103.8475376,3,5,1,0,3,5,1,0,3,5,1,0,3,5,1,0,3,5,1,0,0,0,0,0,0,2,2,1,0,0,0,0,0,0,0,0,0,0,0,0,0,0,0,0,coffeeshop,1
199,Huggs Collective - Aibi Maxwell,1.2776396,103.8453116,2,5,1,0,2,5,1,0,2,5,1,0,2,5,1,0,2,5,1,0,0,0,0,0,1,2,2,2,1,0,0,0,0,0,0,0,1,2,2,2,1,0,0,0,coffeeshop,1
200,Strangers @ Work,1.2835225,103.8522867,3.5,5,1.5,0,3.5,5,1.5,0,3.5,5,1.5,0,3.5,5,1.5,0,3.5,5,1.5,0,0,0,0,0,0,0,0,0,0,0,0,0,0,0,0,0,0,0,0,0,0,0,0,0,coffeeshop,1
201,Bacha Coffee,1.2837365,103.8589801,1,5,6,0,1,5,6,0,1,5,6,0,1,5,6,0,1,5,6,0.5,0,0,0,0,0,2,2,2,2,2,2,0.5,0,0,0,0,0,2,2,2,2,2,2,0,coffeeshop,1
202,Local Coffee People (The Sail),1.2811133,103.8530481,3.5,5,1.5,0,3.5,5,1.5,0,3.5,5,1.5,0,3.5,5,1.5,0,3.5,5,1.5,0,0,0,0,0,0,0,0,0,0,0,0,0,0,0,0,0,0,0,0,0,0,0,0,0,coffeeshop,1
203,"The Coffee Academics, Marina Bay Financial Centre",1.2795863,103.8536733,3,5,1,0,3,5,1,0,3,5,1,0,3,5,1,0,3,5,1,0,0,0,0,0,0,0,0,0,0,0,0,0,0,0,0,0,0,0,0,0,0,0,0,0,coffeeshop,1
204,Narrative Coffee Stand,1.2968858,103.8540075,2,5,0,0,2,5,0,0,2,5,0,0,2,5,0,0,2,5,0,0,0,0,0,0,0,2,2,2,1,0,0,0,0,0,0,0,0,2,2,2,1,0,0,0,coffeeshop,1
205,Volks Coffee Co.,1.2811221,103.852936,3.5,5,0.5,0,3.5,5,0.5,0,3.5,5,0.5,0,3.5,5,0.5,0,3.5,5,0.5,0,0,0,0,0,0,0,0,0,0,0,0,0,0,0,0,0,0,0,0,0,0,0,0,0,coffeeshop,1
206,Flash Coffee,1.2841863,103.8510661,3.5,5,1.5,0,3.5,5,1.5,0,3.5,5,1.5,0,3.5,5,1.5,0,3.5,5,1.5,0,0,0,0,0,0.5,2,2,0,0,0,0,0,0,0,0,0,0,0,0,0,0,0,0,0,coffeeshop,1
207,Alchemist Hong Leong Building,1.2813846,103.8506963,3,5,1,0,3,5,1,0,3,5,1,0,3,5,1,0,3,5,1,0,0,0,0,0,0,0,0,0,0,0,0,0,0,0,0,0,0,0,0,0,0,0,0,0,coffeeshop,1
208,Shi Fu Food Court (Westlink One),1.2977882,103.6289749,4,5,2,1,4,5,2,1,4,5,2,1,4,5,2,1,4,5,2,1,0,0,0,2,2,2,2,2,2,0,0,0,0,0,0,0,0,0,0,0,0,0,0,0,coffeeshop,1
209,Rasheed?s,1.3164156,103.6349022,0.5,5,4.5,0,0.5,5,4.5,0,0.5,5,4.5,0,3,5,5,0,3,5,5,0,0,0,0,0,0,1.5,2,2,2,2,0.5,0,0,0,0,0,0,1.5,2,2,2,2,0.5,0,coffeeshop,1
210,Pioneer Food Village,1.3320114,103.6381533,4,5,3,0.5,4,5,3,0.5,4,5,3,0.5,4,5,3,0.5,4,5,3,0.5,0,0,0,1.5,2,2,2,2,2,1,0,0,0,0,0,1.5,2,2,2,0,0,0,0,0,coffeeshop,1
211,iEat Canteen,1.3187438,103.629009,4,5,5,1,4,5,5,1,4,5,5,1,4,5,5,1,4,5,5,1,0,0,0,2,2,2,2,2,2,2,1,0,0,0,0,0,0,0,0,0,0,0,0,0,coffeeshop,1
212,F&B Outlet,1.2893347,103.6261515,2,5,2.5,0,2,5,2.5,0,2,5,2.5,0,2,5,2.5,0,2,5,2.5,0,0,0,0,0,0,2,2,2,1,0,0,0,0,0,0,0,0,0,0,0,0,0,0,0,coffeeshop,1
213,You & Lai Coffee Foodlink,1.3412661,103.68579,4,5,6,4,4,5,6,4,4,5,6,4,4,5,6,4,4,5,6,4,0,0,1,2,2,2,2,2,2,2,2,2,0,0,1,2,2,2,2,2,2,2,2,2,coffeeshop,1
214,Coffee Shop,1.3333039,103.7048377,4,5,5,1,4,5,5,1,4,5,5,1,4,5,5,1,4,5,5,1,0,0,0,2,2,2,2,2,2,2,1,0,0,0,0,0,2,2,2,2,2,2,1,0,coffeeshop,1
215,26 Coffee Stall,1.3455634,103.712978,4,5,5,0.5,4,5,5,0.5,4,5,5,0.5,4,5,5,0.5,4,5,5,0.5,0,0,0,1.5,2,2,2,2,2,2,1,0,0,0,0,0,2,2,2,2,2,2,1,0,coffeeshop,1
216,Coffeesmith,1.3340077,103.7425517,4,5,6,9,4,5,6,9,4,5,6,9,4,5,6,9,4,5,6,9,2,2,2,2,2,2,2,2,2,2,2,2,2,2,2,2,2,2,2,2,2,2,2,2,coffeeshop,1
217,New Century Food House West Coast 721,1.3030809,103.7642534,4,5,6,4,4,5,6,4,4,5,6,4,4,5,6,4,4,5,6,4,1,0,0,2,2,2,2,2,2,2,2,2,1,0,0,2,2,2,2,2,2,2,2,2,coffeeshop,1
218,6033 Food Court,1.3046673,103.7673487,4,5,6,2,4,5,6,2,4,5,6,2,4,5,6,2,4,5,6,2,0,0,0,2,2,2,2,2,2,2,2,1,0,0,0,2,2,2,2,2,2,2,2,1,coffeeshop,1
219,Chang Cheng Mee Wah Coffee Shop,1.3041554,103.7638464,4,5,6,2,4,5,6,2,4,5,6,2,4,5,6,2,4,5,6,2,0,0,0,2,2,2,2,2,2,2,2,1,0,0,0,2,2,2,2,2,2,2,2,1,coffeeshop,1
220,The Spread,1.2925496,103.7744759,2.75,5,3.5,0,2.75,5,3.5,0,2.75,5,3.5,0,2.75,5,3.5,0,2.75,5,0,0,0,0,0,0,1.75,2,2,1,0,0,0,0,0,0,0,0,0,0,0,0,0,0,0,0,coffeeshop,1
221,Spinelli Coffee Company - National University of Singapore 2,1.2971848,103.7777466,3,5,0,0,3,5,0,0,3,5,0,0,3,5,0,0,3,5,0,0,0,0,0,0,0,0,0,0,0,0,0,0,0,0,0,0,0,0,0,0,0,0,0,0,coffeeshop,1
222,Li Ji Coffee House,1.296309,103.7800436,4,5,3.5,0,4,5,3.5,0,4,5,3.5,0,4,5,3.5,0,4,5,3.5,0,0,0,0,1,2,2,2,0,0,0,0,0,0,0,0,0,0,0,0,0,0,0,0,0,coffeeshop,1
223,Two Hands,1.2904601,103.785045,3,5,1,0,3,5,1,0,3,5,1,0,3,5,1,0,3,5,1,0,0,0,0,0,0,0,0,0,0,0,0,0,0,0,0,0,0,0,0,0,0,0,0,0,coffeeshop,1
224,PYROAST@Science Park,1.291372,103.7847248,3,5,1,0,3,5,1,0,3,5,1,0,3,5,1,0,3,5,1,0,0,0,0,0,1,2,1,0,0,0,0,0,0,0,0,0,0,0,0,0,0,0,0,0,coffeeshop,1
225,Starbucks,1.28737,103.7827895,3.5,5,3,0,3.5,5,3,0,3.5,5,3,0,3.5,5,3,0,3.5,5,3,0,0,0,0,0,0,0,0,0,0,0,0,0,0,0,0,0,0,0,0,0,0,0,0,0,coffeeshop,1
226,Fun Toast,1.2911634,103.7847689,3.5,5,1.5,0,3.5,5,1.5,0,3.5,5,1.5,0,3.5,5,1.5,0,3.5,5,1.5,0,0,0,0,0,0,0,0,0,0,0,0,0,0,0,0,0,0,0,0,0,0,0,0,0,coffeeshop,1
227,Toast Box,1.2943582,103.7840844,3.5,5,4,0,3.5,5,4,0,3.5,5,4,0,3.5,5,4,0,3.5,5,4,0,0,0,0,0,1,2,2,2,1,0,0,0,0,0,0,0,1,2,2,2,1,0,0,0,coffeeshop,1
228,Seng Hong Coffee Shop,1.2885567,103.8139379,4,5,1,1,4,5,1,1,4,5,1,1,4,5,1,1,4,5,1,1,0,0,0,2,2,2,2,2,0.5,0,0,0,0,0,0,0,0,0,0,0,0,0,0,0,coffeeshop,1
229,Chang Cheng Mee Wah Coffee Shop,1.2884234,103.8155354,4,5,6,1,4,5,6,1,4,5,6,1,4,5,6,1,4,5,6,1,0,0,0,2,2,2,2,2,2,2,2,0,0,0,0,2,2,2,2,2,2,2,2,0,coffeeshop,1
230,Anagram,1.2882238,103.8045872,3,5,2,0,3,5,2,0,3,5,2,0,3,5,2,0,3,5,2,0,0,0,0,0,2,2,2,2,2,0,0,0,0,0,0,0,2,2,2,2,2,0,0,0,coffeeshop,1
231,Yue Hua Coffee Shop,1.2816083,103.8126102,2.5,5,6,0,2.5,5,6,0,2.5,5,6,0,2.5,5,6,0,2.5,5,6,0,0,0,0,0,1.5,2,2,2,2,2,2,0,0,0,0,0,1.5,2,2,2,2,2,2,0,coffeeshop,1
232,Danger Close Beverage Company,1.2865351,103.804494,0,0,0,0,0,2.5,4,0,0,2.5,4,0,0,2.5,4,0,0,2.5,4,0,0,0,0,0,0,0,2,0,0.5,2,1.5,0,0,0,0,0,0,0,0,0,0,0,0,0,coffeeshop,1
233,Creamier Handcrafted Ice Cream and Coffee (Gillman Barracks),1.2775262,103.8039617,0,3,6,0,0,3,6,0,0,3,6,0,0,3,6,0,0,3,6,0,0,0,0,0,0,0,2,2,2,2,2,0,0,0,0,0,0,0,2,2,2,2,2,0,coffeeshop,1
234,Bgain 22 Old Street Coffee House,1.2885555,103.8294517,3,5,6,2.5,3,5,6,2.5,3,5,6,2.5,3,5,6,2.5,3,5,6,2.5,0,0,0,0,2,2,2,2,2,2,2,2,0,0,0,0,2,2,2,2,2,2,2,2,coffeeshop,1
235,Flash Coffee,1.28317,103.8177388,2.5,5,1.5,0,2.5,5,1.5,0,2.5,5,1.5,0,2.5,5,1.5,0,2.5,5,1.5,0,0,0,0,0,1.5,2,2,2,1.5,0,0,0,0,0,0,0,1.5,2,2,2,1.5,0,0,0,coffeeshop,1
236,111 Coffee Shop,1.2801667,103.8264873,4,5,5.5,0,4,5,5.5,0,4,5,5.5,0,4,5,5.5,0,4,5,5.5,0,0,0,0,1,2,2,2,2,2,2,1.5,0,0,0,0,1,2,2,2,2,2,2,1.5,0,coffeeshop,1
237,FLOCK CAFE,1.2836062,103.830251,3,5,4.5,0,3,5,4.5,0,3,5,4.5,0,3,5,4.5,0,3,5,4.5,0,0,0,0,0,2,2,2,2,2,2,0.5,0,0,0,0,0,2,2,2,2,2,2,0.5,0,coffeeshop,1
238,The Coffee Bean and Tea Leaf - Tiong Bahru Plaza,1.2863277,103.8273368,4,5,6,3.5,4,5,6,3.5,4,5,6,3.5,4,5,6,3.5,4,5,6,3.5,2,0,0,1.5,2,2,2,2,2,2,2,2,2,0,0,1.5,2,2,2,2,2,2,2,2,coffeeshop,1
239,Tachihara Coffee Havelock Road,1.2895123,103.8274523,4,5,5,0,4,5,5,0,4,5,5,0,4,5,5,0,4,5,5,0,0,0,0,0,2,2,2,2,2,2,1,0,0,0,0,0,2,2,2,2,2,2,1,0,coffeeshop,1
240,Ah Kow Coffee Shop,1.2877601,103.8294725,4,5,6,0,4,5,6,0,4,5,6,0,4,5,6,0,4,5,6,0,0,0,0,1,2,2,2,2,2,2,2,0,0,0,0,1,2,2,2,2,2,2,2,0,coffeeshop,1
241,Kim San Leng Coffeeshop,1.284465,103.8211126,4,5,6,9,4,5,6,9,4,5,6,9,4,5,6,9,4,5,6,9,2,2,2,2,2,2,2,2,2,2,2,2,2,2,2,2,2,2,2,2,2,2,2,2,coffeeshop,1
242,"Lian Seng Coffee, FoodCourt & Canteen",1.2890662,103.8274352,3,5,4.5,0,3,5,4.5,0,3,5,4.5,0,3,5,4.5,0,3,5,4.5,0,0,0,0,0,2,2,2,2,2,2,0.5,0,0,0,0,0,2,2,2,2,2,2,0.5,0,coffeeshop,1
243,Block 116 Bukit Merah View Food Court,1.2851531,103.821393,4,5,6,1,4,5,6,1,4,5,6,1,4,5,6,1,4,5,6,1,0,0,0,2,2,2,2,2,2,2,2,0,0,0,0,2,2,2,2,2,2,2,2,0,coffeeshop,1
244,Starbucks,1.2861728,103.8273055,3.5,5,6,0,3.5,5,6,0,3.5,5,6,0,3.5,5,6,0,4,5,6,9,2,2,2,2,2,2,2,2,2,2,2,2,0,0,0,0.5,2,2,2,2,2,2,2,0,coffeeshop,1
245,112 Coffee Stall,1.28007,103.82607,3,5,6,0,3,5,6,0,3,5,6,0,3,5,6,0,3,5,6,0,0,0,0,0,2,2,2,2,2,2,2,0,0,0,0,0,2,2,2,2,2,2,2,0,coffeeshop,1
246,Tanamera Coffee Robertson Quay,1.2900196,103.8373289,4,5,1,0,4,5,1,0,4,5,1,0,4,5,1,0,4,5,1,0,0,0,0,1,2,2,2,2,2,2,1,0,0,0,0,1,2,2,2,2,1,0,0,0,coffeeshop,1
247,Rough Guys Coffee,1.2831275,103.8456227,1,5,2,0,1,5,2,0,1,5,2,0,1,5,2,0,1,5,2,0,0,0,0,0,0,2,2,2,2,0,0,0,0,0,0,0,0,2,2,2,2,0,0,0,coffeeshop,1
248,Grids Coffee Bar,1.2835722,103.8458886,3,5,2,0,3,5,2,0,3,5,4,2,3,5,4,2,3,5,4,2,0,0,0,0,1,2,2,2,0,2,2,2,0,0,0,0,1,2,2,2,2,0,0,0,coffeeshop,1
249,Common Man Coffee Roasters,1.2918591,103.8384226,3.5,5,1,0,3.5,5,5,0,3.5,5,5,0,3.5,5,5,0,3.5,5,5,1,0,0,0,0.5,2,2,2,2,1,2,2,1,0,0,0,0.5,2,2,2,2,1,2,2,0,coffeeshop,1
250,Craftsmen Specialty Coffee (Clarke Quay Central),1.2886502,103.8465668,4,5,4,0,4,5,4,0,4,5,4,0,4,5,4,0,4,5,4,0,0,0,0,1,2,2,2,2,2,2,0,0,0,0,0,1,2,2,2,2,2,2,0,0,coffeeshop,1
251,Flash Coffee,1.2916585,103.8597629,2.5,5,1.5,0,2.5,5,1.5,0,2.5,5,1.5,0,2.5,5,1.5,0,2.5,5,1.5,0,0,0,0,0,0.5,2,2,2,1.5,0,0,0,0,0,0,0,0.5,2,2,2,1.5,0,0,0,coffeeshop,1
252,The Coffee Bean & Tea Leaf,1.2898722,103.8561915,3,5,6,0,3,5,6,0,3,5,6,0,3,5,6,0,3,5,6,0,0,0,0,0,2,2,2,2,2,2,2,0,0,0,0,0,2,2,2,2,2,2,2,0,coffeeshop,1
253,Upside Down Coffee Roaster,1.2822234,103.8477699,2,4,0,0,2,4,0,0,2,4,0,0,2,4,0,0,2,4,0,0,0,0,0,0,0,0,0,0,0,0,0,0,0,0,0,0,0,0,0,0,0,0,0,0,coffeeshop,1
254,SweetSpot,1.2863729,103.859496,0,5,2,0,0,5,2,0,0,5,2,0,0,5,2,0,0,5,2,0,0,0,0,0,0,1,2,2,2,0,0,0,0,0,0,0,0,1,2,2,2,0,0,0,coffeeshop,1
255,Huggs Coffee,1.2935614,103.8599159,3.5,5,1.5,0,3.5,5,1.5,0,3.5,5,1.5,0,3.5,5,1.5,0,3.5,5,1.5,0,0,0,0,0,0,0,0,0,0,0,0,0,0,0,0,0,0,0,0,0,0,0,0,0,coffeeshop,1
256,Commune Café,1.2925361,103.8598152,2,5,0.5,0,2,5,0.5,0,2,5,0.5,0,2,5,0.5,0,2,5,0.5,0,0,0,0,0,0,1,2,2,1.5,0,0,0,0,0,0,0,0,1,2,2,1.5,0,0,0,coffeeshop,1
257,dal.komm COFFEE @ MS,1.2909268,103.8578016,1,5,6,0,1,5,6,0,1,5,6,0,1,5,6,0,1,5,6,0,0,0,0,0,0,2,2,2,2,2,2,0,0,0,0,0,0,2,2,2,2,2,2,0,coffeeshop,1
258,Origin + Bloom,1.2844201,103.8610889,4,5,4.5,0,4,5,4.5,0,4,5,4.5,0,4,5,4.5,0,4,5,4.5,0,0,0,0,1,2,2,2,2,2,2,0.5,0,0,0,0,1,2,2,2,2,2,2,0.5,0,coffeeshop,1
259,The Coffee Academics @ Millenia Walk,1.2931014,103.859496,3,5,6,0,3,5,6,0,3,5,6,0,3,5,6,0,3,5,6,0,0,0,0,0,2,2,2,2,2,2,2,0,0,0,0,0,2,2,2,2,2,2,2,0,coffeeshop,1
260,Sanity Coffee Bar,1.2899587,103.8560744,0,0,0,0,0,0,0,0,1.5,5,1,0,1.5,5,1,0,1.5,5,1,0,0,0,0,0,0,1,2,2,1.5,0,0,0,0,0,0,0,0,1,2,2,1,0,0,0,coffeeshop,1
261,Fahrenheit Coffee Singapore,1.2970813,103.8564312,3,5,2,0,3,5,2,0,3,5,2,0,3,5,2,0,3,5,2,0,0,0,0,0,2,2,2,2,2,0,0,0,0,0,0,0,2,2,2,2,2,0,0,0,coffeeshop,1
262,La Coffee,1.2912061,103.8576768,3,5,4.5,0,3,5,4.5,0,3,5,4.5,0,3,5,4.5,0,3,5,4.5,0,0,0,0,0,2,2,2,2,2,2,1,0,0,0,0,0,2,2,2,2,2,2,0.5,0,coffeeshop,1
263,Flash Coffee,1.2922109,103.8557825,3,5,2,0,3,5,2,0,3,5,2,0,3,5,2,0,3,5,2,0,0,0,0,0,0,2,2,2,2,0,0,0,0,0,0,0,0,2,2,2,2,0,0,0,coffeeshop,1
264,Guerilla Coffee,1.2956938,103.8588042,3,5,1,0,3,5,1,0,3,5,1,0,3,5,1,0,3,5,1,0,0,0,0,0,1,2,2,2,2,0,0,0,0,0,0,0,1,2,2,2,2,0,0,0,coffeeshop,1
265,Kith Café Millenia Walk,1.2921214,103.8595792,3.5,5,6,0,3.5,5,6,0,3.5,5,6,0,3.5,5,6,0,3.5,5,6,0,0,0,0,0.5,2,2,2,2,2,2,2,0,0,0,0,0.5,2,2,2,2,2,2,2,0,coffeeshop,1
266,Zerah Coffee Roasters,1.305245,103.863084,1,5,1,0,1,5,1,0,1,5,1,0,1,5,1,0,1,5,1,0,0,0,0,0,0,2,2,2,1,0,0,0,0,0,0,0,0,2,2,2,1,0,0,0,coffeeshop,1
267,Habitat Coffee,1.3093343,103.861282,0,0,0,0,2,5,2,0,2,5,2,0,2,5,2,0,2,5,5,0,0,0,0,0,1,2,2,2,2,2,1,0,0,0,0,0,1,2,2,2,2,0,0,0,coffeeshop,1
268,Kurasu Singapore,1.2983133,103.8520553,1,5,2,0,1,5,2,0,1,5,2,0,1,5,2,0,1,5,2,0,0,0,0,0,0,2,2,2,2,0,0,0,0,0,0,0,0,2,2,2,2,0,0,0,coffeeshop,1
269,Jing Jing Coffee Shop,1.3030373,103.896666,4,5,6,0.5,4,5,6,0.5,4,5,6,0.5,4,5,6,0.5,4,5,6,0.5,0,0,0,1,2,2,2,2,2,2,2,0.5,0,0,0,1,2,2,2,2,2,2,2,0.5,coffeeshop,1
270,The Coffee Bean and Tea Leaf - Parkway Parade,1.3009867,103.905765,3,5,6,0,3,5,6,0,3,5,6,0,3,5,6,0,3,5,6,0,0,0,0,0,2,2,2,2,2,2,2,0,0,0,0,0,2,2,2,2,2,2,2,0,coffeeshop,1
271,Little Rogue Coffee,1.3038749,103.896455,2.5,5,2,0,2.5,5,2,0,2.5,5,2,0,2.5,5,2,0,2.5,5,2,0,0,0,0,0,1.5,2,2,2,2,0,0,0,0,0,0,0,1.5,2,2,2,2,0,0,0,coffeeshop,1
272,Coffee Hive,1.3024158,103.8539626,2,5,3.25,0,2,5,3.25,0,2,5,3.25,0,2,5,3.25,0,2,5,3.25,0,0,0,0,0,1,2,2,2,2,1.25,0,0,0,0,0,0,1,2,2,2,2,1.25,0,0,coffeeshop,1
273,Kang Siang Coffee Stall,1.3010906,103.8790439,4,5,2.75,0.5,4,5,2.75,0.5,4,5,2.75,0.5,4,5,2.75,0.5,4,5,2.75,0.5,0,0,0,1.5,2,2,2,2,1.5,0,0,0,0,0,0,1.5,2,1.75,0,0,0,0,0,0,coffeeshop,1
274,Joylicious Food court,1.3308322,103.6473974,4,5,4,1,4,5,4,1,4,5,4,1,4,5,4,1,4,5,4,1,0,0,0,2,2,2,2,2,2,2,0,0,0,0,0,0,0,0,0,0,0,0,0,0,coffeeshop,1
275,Xiang Lai Claypot Herbal Bak Kut Teh,1.2976437,103.6288838,1,5,2.5,0,1,5,2.5,0,1,5,2.5,0,1,5,2.5,0,1,5,2.5,0,0,0,0,0,0,2,1,0,0,0,0,0,0,0,0,0,0,0,0,0,0,0,0,0,coffeeshop,1
276,?????,1.3062946,103.657405,4,2,0,2,4,2,0,2,4,2,0,2,4,2,0,2,4,2,0,2,0,0,1,2,2,2,1,0,0,0,0,0,0,0,1,2,2,2,1,0,0,0,0,0,coffeeshop,1
277,Toast Box,1.3267186,103.6786068,3.5,5,1,0,3.5,5,1,0,3.5,5,1,0,3.5,5,1,0,3.5,5,1,0,0,0,0,0,1.5,2,2,2,1,0,0,0,0,0,0,0,1.5,2,2,2,1,0,0,0,coffeeshop,1
278,Hoho seafood,1.3156474,103.6973133,1.5,5,4,0,1.5,5,4,0,1.5,5,4,0,1.5,5,4,0,1.5,5,4,0,0,0,0,0,0.5,2,2,2,2,2,0,0,0,0,0,0,0,0,0,0,0,0,0,0,coffeeshop,1
279,Starbucks,1.333644,103.7425115,4,5,6,0,4,5,6,0,4,5,6,0,4,5,6,0,4,5,6,0.5,0,0,0,0.5,2,2,2,2,2,2,2,0.5,0,0,0,0.5,2,2,2,2,2,2,2,0,coffeeshop,1
280,Kimly Coffeeshop (Blk 303 Jurong East),1.3447801,103.7356594,4,5,6,9,4,5,6,9,4,5,6,9,4,5,6,9,4,5,6,9,2,2,2,2,2,2,2,2,2,2,2,2,2,2,2,2,2,2,2,2,2,2,2,2,coffeeshop,1
281,The Oasis,1.3342386,103.7396872,3.5,5,6,0,3.5,5,6,0,3.5,5,6,0,3.5,5,6,0,3.5,5,6,0,0,0,0,0.5,2,2,2,2,2,2,2,0,0,0,0,0.5,2,2,2,2,2,2,2,0,coffeeshop,1
282,Awesome Coffee,1.3285035,103.752956,0,5,4,0,0,5,4,0,0,5,4,0,0,5,4,0,0,5,4,0,0,0,0,0,0,1,2,2,2,2,0,0,0,0,0,0,0,1,2,2,2,2,0,0,coffeeshop,1
283,Kopitiam,1.3138849,103.7652542,4,5,6,9,4,5,6,9,4,5,6,9,4,5,6,9,4,5,6,9,2,2,2,2,2,2,2,2,2,2,2,2,2,2,2,2,2,2,2,2,2,2,2,2,coffeeshop,1
284,Starbucks,1.3032655,103.7655717,3,5,6,0,3,5,6,0,3,5,6,0,3,5,6,0,3,5,6,0,0,0,0,0,2,2,2,2,2,2,2,0,0,0,0,0,2,2,2,2,2,2,2,0,coffeeshop,1
285,Polar Beurre Cafe,1.3023762,103.7643557,0,3.5,5.5,0,0,3.5,5.5,0,0,3.5,5.5,0,0,3.5,5.5,0,0,3.5,5.5,0,0,0,0,0,0,0.5,2,2,2,2,2,0,0,0,0,0,0,0.5,2,2,2,2,2,0,coffeeshop,1
286,Chuan Hing Eating House,1.3027878,103.7634885,4,5,6,2,4,5,6,2,4,5,6,2,4,5,6,2,4,5,6,2,0,0,0,2,2,2,2,2,2,2,2,1,0,0,0,2,2,2,2,2,2,2,2,1,coffeeshop,1
287,Chef Frankie's Hong Kong Delights,1.304744,103.7673494,4,3,4.5,0,4,3,4.5,0,4,3,4.5,0,4,3,4.5,0,4,3,4.5,0,0,0,0,1,2,2,2,2,2,2,1.5,0,0,0,0,1,2,2,2,2,2,2,1.5,0,coffeeshop,1
288,??? Coffee Shop,1.3044833,103.7818189,4,5,6,1,4,5,6,1,4,5,6,1,4,5,6,1,4,5,6,1,0,0,0,2,2,2,2,2,2,2,2,0,0,0,0,2,2,2,2,2,2,2,2,0,coffeeshop,1
289,Foreword Coffee Roasters @ Yong Siew Toh Conservatory of Music,1.3022102,103.7729095,2,5,0,0,2,5,0,0,2,5,0,0,2,5,0,0,2,5,0,0,0,0,0,0,0,0,0,0,0,0,0,0,0,0,0,0,0,0,0,0,0,0,0,0,coffeeshop,1
290,The Coffee Bean & Tea Leaf - National University Hospital (NUH),1.2945847,103.7841494,4,5,6,9,4,5,6,9,4,5,6,9,4,5,6,9,4,5,6,9,2,2,2,2,2,2,2,2,2,2,2,2,2,2,2,2,2,2,2,2,2,2,2,2,coffeeshop,1
291,Flavours@UTown,1.3047189,103.7727249,3.5,5,5,0,3.5,5,5,0,3.5,5,5,0,3.5,5,5,0,3.5,5,5,0,0,0,0,0.5,2,2,2,2,2,2,1,0,0,0,0,0.5,2,2,2,2,2,2,1,0,coffeeshop,1
292,Tanamera Coffee The Metropolis,1.3059544,103.7916296,3,5,2,0,3,5,2,0,3,5,2,0,3,5,2,0,3,5,2,0,0,0,0,0,0,0,0,0,0,0,0,0,0,0,0,0,0,0,0,0,0,0,0,0,coffeeshop,1
293,Honest Cup & Co.,1.3057338,103.7918068,2.5,5,0.5,0,2.5,5,0.5,0,2.5,5,0.5,0,2.5,5,0.5,0,2.5,5,0.5,0,0,0,0,0,0,0,0,0,0,0,0,0,0,0,0,0,0,0,0,0,0,0,0,0,coffeeshop,1
294,Bread Yard,1.2999588,103.7877471,3,5,2,0,3,5,2,0,3,5,2,0,3,5,2,0,3,5,2,0,0,0,0,0,2,2,2,2,1,0,0,0,0,0,0,0,0,0,0,0,0,0,0,0,coffeeshop,1
295,One Man Coffee,1.2986379,103.7890927,2,5,0,0,2,5,0,0,2,5,0,0,2,5,0,0,2,5,0,0,0,0,0,0,0,0,0,0,0,0,0,0,0,0,0,0,0,0,0,0,0,0,0,0,coffeeshop,1
296,Coffee Station,1.2974124,103.7875038,4,5,5,0,3,5,5.5,0,3,5,5.5,0,3,5,5.5,0,3,5,5.5,0,0,0,0,0,2,2,2,2,2,2,1.5,0,0,0,0,0,2,2,2,2,2,2,1.5,0,coffeeshop,1
297,Starbucks,1.3031701,103.7920899,3.5,5,3,0,3.5,5,3,0,3.5,5,3,0,3.5,5,3,0,3.5,5,3,0,0,0,0,0,0,0,0,0,0,0,0,0,0,0,0,0,0,0,0,0,0,0,0,0,coffeeshop,1
298,Starbucks,1.2988321,103.7874431,4,5,5,0,4,5,5,0,4,5,5,0,4,5,5,0,4,5,5,0,0,0,0,0,1.5,2,2,2,1.5,0,0,0,0,0,0,0,1.5,2,2,2,1.5,0,0,0,coffeeshop,1
299,Jimmy Monkey Cafe & Bar,1.3018774,103.7902504,3,5,0,0,3,5,0,0,3,5,0,0,3,5,0,0,3,5,0,0,0,0,0,0,2,2,2,2,0,0,0,0,0,0,0,0,2,2,2,2,0,0,0,0,coffeeshop,1
300,6 @ Holland Coffeeshop,1.3071882,103.7952664,4,5,6,1.5,4,5,6,1.5,4,5,6,1.5,4,5,6,1.5,4,5,6,1.5,0,0,0,2,2,2,2,2,2,2,2,0.5,0,0,0,2,2,2,2,2,2,2,2,0.5,coffeeshop,1
301,Brash Boys Coffee,1.3022187,103.7931081,3,5,1,0,3,5,1,0,3,5,1,0,3,5,1,0,3,5,1,0,0,0,0,0,0,0,0,0,0,0,0,0,0,0,0,0,0,0,0,0,0,0,0,0,coffeeshop,1
302,Seven Stars Coffee Shop (?????),1.295284,103.8105329,4,5,6,0,4,5,6,0,4,5,6,0,4,5,6,0,4,5,6,0,0,0,0,1,2,2,2,2,2,2,2,0,0,0,0,1,2,2,2,2,2,2,2,0,coffeeshop,1
303,Seeds Cafe,1.297349,103.8088766,3,5,1,0,3,5,1,0,3,5,1,0,3,5,1,0,3,5,1,0,0,0,0,0,0,0,0,0,0,0,0,0,0,0,0,0,2,2,1,0,0,0,0,0,coffeeshop,1
304,Sin & Savage Bakehouse,1.2904595,103.8031098,0,0,0,0,0.5,5,4.5,0,0.5,5,4.5,0,0.5,5,4.5,0,0.5,5,5,0,0,0,0,0,0.5,2,2,2,2,2,1,0,0,0,0,0,0.5,2,2,2,2,2,0.5,0,coffeeshop,1
305,Hong Seng Coffee Stall,1.2931933,103.8026988,4,5,5,1,4,5,5,1,4,5,5,1,4,5,5,1,4,5,5,1,0,0,0,2,2,2,2,2,2,2,1,0,0,0,0,0,2,2,2,2,2,2,1,0,coffeeshop,1
306,Meng Hup Eating House,1.2915213,103.8027015,4,5,6,1.5,4,5,6,1.5,4,5,6,1.5,4,5,6,1.5,4,5,6,1.5,0,0,0,2,2,2,2,2,2,2,2,0.5,0,0,0,2,2,2,2,2,2,2,2,0.5,coffeeshop,1
307,Necessary Provisions,1.3053734,103.8252129,3,5,1,0,3,5,1,0,3,5,1,0,3,5,1,0,3,5,1,0,0,0,0,0,2,2,2,2,1,0,0,0,0,0,0,0,2,2,2,2,1,0,0,0,coffeeshop,1
308,Grace Espresso,1.2943306,103.8274691,3.5,5,0.25,0,3.5,5,0.25,0,3.5,5,0.25,0,3.5,5,0.25,0,3.5,5,2,0,0,0,0,0.5,2,2,2,2,2,0,0,0,0,0,0,0.5,2,2,2,2,2,0,0,0,coffeeshop,1
309,The Coffee Bean & Tea Company,1.3064599,103.8284612,4,5,6,9,4,5,6,9,4,5,6,9,4,5,6,9,4,5,6,9,2,2,2,2,2,2,2,2,2,2,2,2,2,2,2,2,2,2,2,2,2,2,2,2,coffeeshop,1
310,Café Bakeaholic,1.3046593,103.8305133,0,5,5,0,0,5,5,0,0,5,5,0,0,5,5,0,0,5,5,0,0,0,0,0,0,1,2,2,2,2,1,0,0,0,0,0,0,1,2,2,2,2,1,0,coffeeshop,1
311,Starbucks,1.3049453,103.8234128,4,5,6,0,4,5,6,0,4,5,6,0,4,5,6,0,4,5,6,0,0,0,0,0.5,2,2,2,2,2,2,2,0,0,0,0,0.5,2,2,2,2,2,2,2,0,coffeeshop,1
312,Gumption Coffee,1.304701,103.8307501,0.5,5,4,0,0.5,5,4,0,0.5,5,4,0,0.5,5,4,0,0.5,5,4,0,0,0,0,0,0,1.5,2,2,2,2,0,0,0,0,0,0,0,1.5,2,2,2,2,0,0,coffeeshop,1
313,Three Penguins Roastery (Coffee Roasters) - River Valley,1.2923228,103.8226932,4,5,6,9,4,5,6,9,4,5,6,9,4,5,6,9,4,5,6,9,2,2,2,2,2,2,2,2,2,2,2,2,2,2,2,2,2,2,2,2,2,2,2,2,coffeeshop,1
314,Starbucks,1.2928914,103.8264989,3.5,5,6,0,3.5,5,6,0,3.5,5,6,0,3.5,5,6,0,3.5,5,6,0,0,0,0,0.5,2,2,2,2,2,2,2,0,0,0,0,0.5,2,2,2,2,2,2,2,0,coffeeshop,1
315,Caffé Beviamo,1.305035,103.823845,2,5,4,0,2,5,4,0,2,5,4,0,2,5,4,0,2,5,4,0,0,0,0,0,1,2,2,2,2,2,0,0,0,0,0,0,1,2,2,2,2,2,0,0,coffeeshop,1
316,Starbucks,1.3049118,103.8309838,3,5,6,0,3,5,6,0,3,5,6,0,3,5,6,0,3,5,6,0,0,0,0,0,2,2,2,2,2,2,2,0,0,0,0,0,2,2,2,2,2,2,2,0,coffeeshop,1
317,M&S Café,1.3049164,103.8301948,2,5,5,0,2,5,5,0,2,5,5,0,2,5,5,0,2,5,6,0,0,0,0,0,1,2,2,2,2,2,2,0,0,0,0,0,1,2,2,2,2,2,1,0,coffeeshop,1
318,Toast Box,1.305691,103.8317805,3.5,5,5.5,0,3.5,5,5.5,0,3.5,5,5.5,0,3.5,5,5.5,0,3.5,5,5.5,0,0,0,0,0.5,2,2,2,2,2,2,1.5,0,0,0,0,0.5,2,2,2,2,2,2,1.5,0,coffeeshop,1
319,PRAIRIE by Craftsmen (River Valley),1.293426,103.8261209,2,5,5,0,2,5,5,0,2,5,5,0,2,5,5,0,2,5,5,0,0,0,0,0,1,2,2,2,2,2,1,0,0,0,0,0,1,2,2,2,2,2,1,0,coffeeshop,1
320,Food Loft,1.2896675,103.8281444,0,5,5.5,0,0,5,5.5,0,1,5,5.5,0,0,5,5.5,0,0,5,5.5,0,0,0,0,0,0,1,2,2,2,2,1.5,0,0,0,0,0,0,1,2,2,2,2,1.5,0,coffeeshop,1
321,Killiney Kopitiam,1.2988675,103.8394317,4,5,2,1,4,5,2,1,4,5,2,1,4,5,2,1,4,5,2,1,0,0,0,2,2,2,2,2,2,0,0,0,0,0,0,2,2,2,2,2,2,0,0,0,coffeeshop,1
322,% Arabica Singapore 313@Somerset,1.3009185,103.8386043,1,5,4,0,1,5,4,0,1,5,4,0,1,5,4,0,1,5,4,0,0,0,0,0,0,2,2,2,2,2,0,0,0,0,0,0,0,2,2,2,2,2,0,0,coffeeshop,1
323,Dutch Colony Coffee Co.,1.2922763,103.8425461,3,5,2,0,3,5,2,0,3,5,2,0,3,5,2,0,3,5,2,0,0,0,0,0,2,2,2,2,2,0,0,0,0,0,0,0,2,2,2,2,2,0,0,0,coffeeshop,1
324,Grounded by CMCR,1.2918944,103.8383436,3.5,5,1,0,3.5,5,5,0,3.5,5,5,0,3.5,5,5,0,3.5,5,5,1,0,0,0,0.5,2,2,2,2,1,2,2,1,0,0,0,0.5,2,2,2,2,1,2,2,0,coffeeshop,1
325,The Coffee Bean and Tea Leaf - Wisma Atria,1.3040244,103.8327645,2,5,6,0,2,5,6,0,2,5,6,0,2,5,6,0,2,5,6,0,0,0,0,0,1,2,2,2,2,2,2,0,0,0,0,0,1,2,2,2,2,2,2,0,coffeeshop,1
326,There Was No Coffee,1.3004777,103.8395072,1,5,6,0,1,5,6,0,1,5,6,0,1,5,6,0,1,5,6,0,0,0,0,0,0,2,2,2,2,2,2,0,0,0,0,0,0,2,2,2,2,2,2,0,coffeeshop,1
327,Flash Coffee,1.300459,103.8393516,1,5,5.5,0,1,5,5.5,0,1,5,5.5,0,1,5,5.5,0,1,5,5.5,0,0,0,0,0,0,2,2,2,2,2,1.5,0,0,0,0,0,0,2,2,2,2,2,1.5,0,coffeeshop,1
328,Coffee Roasting,1.2993287,103.8370688,2,5,1,0,2,5,1,0,2,5,1,0,2,5,1,0,2,5,1,0,0,0,0,0,0,0,0,0,0,0,0,0,0,0,0,0,0,0,0,0,0,0,0,0,coffeeshop,1
329,Craftsmen Specialty Coffee (Mohamed Sultan),1.2923406,103.840735,4,5,3,0,4,5,3,0,4,5,3,0,4,5,3,0,4,5,3,0,0,0,0,0.5,2,2,2,2,2,1,0,0,0,0,0,0.5,2,2,2,2,2,1,0,0,coffeeshop,1
330,The Coffee Bean and Tea Leaf - Great World,1.2935445,103.831949,3,5,6,0,3,5,6,0,3,5,6,0,3,5,6,0,3,5,6,0,0,0,0,0,2,2,2,2,2,2,2,0,0,0,0,0,2,2,2,2,2,2,2,0,coffeeshop,1
331,Coffeesmith,1.3004289,103.8397786,4,5,6,9,4,5,6,9,4,5,6,9,4,5,6,9,4,5,6,9,2,2,2,2,2,2,2,2,2,2,2,2,2,2,2,2,2,2,2,2,2,2,2,2,coffeeshop,1
332,Mellower Coffee Singapore,1.2987987,103.8540246,1.5,5,4,0,1.5,5,4,0,1.5,5,4,0,1.5,5,4,0,1,5,5,0,0,0,0,0,0.5,2,2,2,2,2,1,0,0,0,0,0,0.5,2,2,2,2,2,0,0,coffeeshop,1
333,Double Up Coffee,1.3042508,103.8597979,1,5,2,0,0,0,0,0,1,5,2,0,1,5,2,0,1,5,2,0,0,0,0,0,0,2,2,2,2,0,0,0,0,0,0,0,0,2,2,2,2,0,0,0,coffeeshop,1
334,Shake Coffee,1.3020047,103.851695,1.5,5,2,0,1.5,5,2,0,1.5,5,2,0,1.5,5,2,0,1.5,5,2,0,0,0,0,0,0,0,2,2,2,0,0,0,0,0,0,0,0,0,0,0,0,0,0,0,coffeeshop,1
335,The Coffee Bean and Tea Leaf - Bugis+,1.2995142,103.8541735,4,5,6,9,4,5,6,9,4,5,6,9,4,5,6,9,4,5,6,9,2,2,2,2,2,2,2,2,2,2,2,2,2,2,2,2,2,2,2,2,2,2,2,2,coffeeshop,1
336,Twenty Eight Cafe,1.3021496,103.8488031,3.5,5,0.5,0,3.5,5,0.5,0,3.5,5,0.5,0,3.5,5,0.5,0,3.5,5,0.5,0,0,0,0,0,2,2,2,2,0.5,0,0,0,0,0,0,0,2,2,2,2,0.5,0,0,0,coffeeshop,1
337,Fraser Street Brothers,1.2994608,103.8583494,3.5,5,0,0,3.5,5,0,0,3.5,5,0,0,3.5,5,0,0,3.5,5,0,0,0,0,0,0,0,0,0,0,0,0,0,0,0,0,0,0,0,0,0,0,0,0,0,0,coffeeshop,1
338,Coffee Time ????,1.3001883,103.8538404,3.5,5,3.5,0,3.5,5,3.5,0,3.5,5,3.5,0,3.5,5,3.5,0,3.5,5,3.5,0,0,0,0,0.5,2,2,2,2,2,1.5,0,0,0,0,0,0.5,2,2,2,2,2,1.5,0,0,coffeeshop,1
339,Heap Seng Leong,1.3054164,103.8636504,4,5,0,2,4,5,0,2,4,5,0,2,4,5,0,2,4,5,0,2,0,0,1,2,2,2,2,2,0,0,0,0,0,0,1,2,2,2,2,2,0,0,0,0,coffeeshop,1
340,Coffee Fusion,1.3028574,103.8639909,0,4,4,0,0,4,4,0,0,4,4,0,0,4,4,0,0,4,4,0,0,0,0,0,0,1,2,1,0,2,2,0,0,0,0,0,0,1,2,1,0,2,2,0,coffeeshop,1
341,Coffee Lounge,1.299904,103.860551,2,5,3,0,2,5,3,0,2,5,3,0,2,5,3,0,2,5,3,0,0,0,0,0,1,2,2,2,2,1,0,0,0,0,0,0,1,2,2,2,2,1,0,0,coffeeshop,1
342,Tachihara Coffee ????????,1.2936616,103.8597324,3.5,5,1,0,3.5,5,1,0,3.5,5,1,0,3.5,5,1,0,3.5,5,1,0,0,0,0,0,1,2,2,2,1,0,0,0,0,0,0,0,1,2,2,2,1,0,0,0,coffeeshop,1
343,CSS Coffee Bar,1.303828,103.8614791,3,5,4,0,3,5,4,0,3,5,4,0,3,5,4,0,3,5,4,0,0,0,0,0,2,2,2,2,2,2,0,0,0,0,0,0,2,2,2,2,2,2,0,0,coffeeshop,1
344,TAG Espresso at Raffles City,1.3048474,103.8633181,3,5,4.5,0,3,5,4.5,0,3,5,4.5,0,3,5,4.5,0,3,5,4.5,0,0,0,0,0,0,2,2,2,2,2,0.5,0,0,0,0,0,0,2,2,2,2,2,0.5,0,coffeeshop,1
345,The Coffee Bean and Tea Leaf? - Leisure Park Kallang,1.3027137,103.8765233,3.5,5,6,1,3.5,5,6,1,3.5,5,6,1,3.5,5,6,1,3.5,5,6,2,0,0,0,0.5,2,2,2,2,2,2,2,2,0,0,0,0.5,2,2,2,2,2,2,2,1,coffeeshop,1
346,The Coffee Bean and Tea Leaf - Kallang Wave Mall,1.3025249,103.8736219,3,5,6,0,3,5,6,0,3,5,6,0,3,5,6,0,3,5,6,1,0,0,0,0,2,2,2,2,2,2,2,1,0,0,0,0,2,2,2,2,2,2,2,0,coffeeshop,1
347,Loong Siang Coffee House,1.3018612,103.8639828,1.5,5,2,0,1.5,5,2,0,2,5,4,0,2,5,4,0,2,5,4,0,0,0,0,0,1,2,2,2,2,2,0,0,0,0,0,0,0.5,2,2,2,2,0,0,0,coffeeshop,1
348,Hau Coffee & Drinks,1.3023324,103.8838966,3,5,5.5,0,3,5,5.5,0,3,5,5.5,0,3,5,5.5,0,3,5,5.5,0,0,0,0,0,2,2,2,2,2,2,1.5,0,0,0,0,0,2,2,2,2,2,2,1.5,0,coffeeshop,1
349,Choon Guan Coffee Shop,1.3074493,103.8845331,4,5,6,3,4,5,6,3,4,5,6,3,4,5,6,3,4,5,6,3,0,0,2,2,2,2,2,2,2,2,2,0,0,0,2,2,2,2,2,2,2,2,2,0,coffeeshop,1
350,Oldtown White Coffee,1.3032987,103.8725278,1,5,6,0.5,1,5,6,0.5,1,5,6,0.5,1,5,6,0.5,1,5,6,0.5,0,0,0,0,1,2,2,2,2,2,2,0.5,0,0,0,0,1,2,2,2,2,2,2,0.5,coffeeshop,1
351,6 Letter Coffee,1.3080164,103.8954001,4,5,3,0,4,5,3,0,4,5,3,0,4,5,3,0,4,5,4,0,0,0,0,0,2,2,2,2,2,2,0,0,0,0,0,0,2,2,2,2,2,1,0,0,coffeeshop,1
352,351 Coffee Shop,1.3121691,103.8775765,3,5,6,0,3,5,6,0,3,5,6,0,3,5,6,0,3,5,6,0,0,0,0,0,2,2,2,2,2,2,2,0,0,0,0,0,2,2,2,2,2,2,2,0,coffeeshop,1
353,Ji Heng Coffee Shop,1.3142015,103.8869864,3,5,6,0,3,5,6,0,3,5,6,0,3,5,6,0,3,5,6,0,0,0,0,0,2,2,2,2,2,2,2,0,0,0,0,0,1.5,2,2,2,2,2,0,0,coffeeshop,1
354,WuFu Coffee shop,1.3127415,103.8730626,4,5,5,0,4,5,5,0,4,5,5,0,4,5,5,0,4,5,5,0,0,0,0,1,2,2,2,2,2,2,1,0,0,0,0,1,2,2,2,2,2,2,1,0,coffeeshop,1
355,Common Man Coffee Roasters Joo Chiat,1.311978,103.9006426,3.5,5,1,0,3.5,5,5,0,3.5,5,5,0,3.5,5,5,0,3.5,5,5,1,0,0,0,0.5,2,2,2,2,1,2,2,1,0,0,0,0.5,2,2,2,2,1,2,2,0,coffeeshop,1
356,Humble Origins Coffee Roasters,1.306384,103.904706,2.5,5,1.5,0,0,0,0,0,2.5,5,1.5,0,2.5,5,1.5,0,2.5,5,1.5,0,0,0,0,0,1.5,2,2,2,1.5,0,0,0,0,0,0,0,1.5,2,2,2,1.5,0,0,0,coffeeshop,1
357,Killiney,1.3043612,103.9046713,3.5,5,4,0,3.5,5,1,0,3.5,5,4,0,3.5,5,4,0,3.5,5,4,0,0,0,0,0.5,2,2,2,2,2,2,0,0,0,0,0,0.5,2,2,2,2,2,2,0,0,coffeeshop,1
358,Huggs Collective @ i12 Katong,1.3052002,103.9050645,1,5,5,0,1,5,5,0,1,5,5,0,1,5,5,0,1,5,5,0,0,0,0,0,1,2,2,2,2,2,1,0,0,0,0,0,1,2,2,2,2,2,1,0,coffeeshop,1
359,Flash Coffee,1.3052934,103.9051599,2,4,2,0,2,4,2,0,2,4,2,0,2,4,2,0,2,4,2,0,0,0,0,0,1,2,2,1,2,0,0,0,0,0,0,0,1,2,2,1,2,0,0,0,coffeeshop,1
360,LuvCoffee,1.2969532,103.8995471,4,5,6,0,4,5,6,0,4,5,6,0,4,5,6,0,4,5,6,0,0,0,0,1,2,2,2,2,2,2,2,1,0,0,0,1,2,2,2,2,2,2,2,1,coffeeshop,1
361,Starbucks,1.3020241,103.905097,3.5,5,6,0,3.5,5,6,0,3.5,5,6,0,3.5,5,6,0,3.5,5,6,0,0,0,0,0.5,2,2,2,2,2,2,2,0,0,0,0,0.5,2,2,2,2,2,2,2,0,coffeeshop,1
362,PRAIRIE by Craftsmen (Joo Chiat),1.3061527,103.9045561,3.5,5,4,0,3.5,5,4,0,3.5,5,4,0,3.5,5,4,0,3.5,5,5,0,0,0,0,0.5,2,2,2,2,2,2,1,0,0,0,0,0.5,2,2,2,2,2,2,0,0,coffeeshop,1
363,CHOICE CUTS GOODS + COFFEE,1.3065634,103.9043687,2,5,2,0,2,5,2,0,2,5,2,0,2,5,2,0,2,5,2,0,0,0,0,0,1,2,2,2,2,0,0,0,0,0,0,0,1,2,2,2,2,0,0,0,coffeeshop,1
364,Starbucks,1.3051642,103.9043723,3,5,6,0,3,5,6,0,3,5,6,0,3,5,6,0,3,5,6,1.5,0,0,0,0,2,2,2,2,2,2,2,1.5,0,0,0,0,2,2,2,2,2,2,2,0,coffeeshop,1
365,Coffee Master Cafe Enterprise,1.3052002,103.9050645,1,5,5.5,0,1,5,5.5,0,1,5,5.5,0,1,5,5.5,0,1,5,5.5,0,0,0,0,0,0,2,2,2,2,2,1.5,0,0,0,0,0,0,2,2,2,2,2,1.5,0,coffeeshop,1
366,MICRO red | house,1.3052555,103.9036804,0,0,0,0,0,0,0,0,2.5,5,0,0,2.5,5,0,0,2.5,5,0,0,0,0,0,0,1.5,2,2,2,1,0,0,0,0,0,0,0,1.5,2,2,2,1,0,0,0,coffeeshop,1
367,Toast Box,1.3014702,103.9051552,3,5,5.5,0,3,5,5.5,0,3,5,5.5,0,3,5,5.5,0,3,5,5.5,0,0,0,0,0,2,2,2,2,2,2,1.5,0,0,0,0,0,2,2,2,2,2,2,1.5,0,coffeeshop,1
368,Brunners Coffeeshop,1.3075221,103.9075919,4,5,6,2,4,5,6,2,4,5,6,2,4,5,6,2,4,5,6,2,0,0,0,1,2,2,2,2,2,2,2,2,0,0,0,1,2,2,2,2,2,2,2,2,coffeeshop,1
369,Group Therapy Coffee - Katong V,1.3032822,103.9032045,3,5,2,0,3,5,2,0,3,5,2,0,3,5,2,0,3,5,2,0,0,0,0,0,2,2,2,2,2,0,0,0,0,0,0,0,2,2,2,2,2,0,0,0,coffeeshop,1
370,GRD CTRL Cafe,1.304686,103.9017566,0,0,6,1,1,5,6,2,1,5,6,2,1,5,6,2,1,5,6,2,0,0,0,0,1.5,2,2,2,2,2,2,2,0,0,0,0,1.5,2,2,2,2,2,2,1,coffeeshop,1
371,FLOCK CAFÉ,1.306997,103.895372,3,5,4.5,0,3,5,4.5,0,3,5,4.5,0,3,5,4.5,0,3,5,4.5,0,0,0,0,0,2,2,2,2,2,2,0.5,0,0,0,0,0,2,2,2,2,2,2,0.5,0,coffeeshop,1
372,Starbucks,1.2988856,103.9067876,3.5,5,6,0.5,3.5,5,6,0.5,3.5,5,6,0.5,3.5,5,6,0.5,3.5,5,6,0.5,0,0,0,0.5,2,2,2,2,2,2,2,0.5,0,0,0,0.5,2,2,2,2,2,2,2,0.5,coffeeshop,1
373,East Coast Commune,1.301317,103.9129037,3,5,1.5,0,0,0,0,0,3,5,1.5,0,3,5,1.5,0,3,5,1.5,0,0,0,0,0,2,2,2,2,2,2,1,0,0,0,0,0,2,2,2,2,2,2,1,0,coffeeshop,1
374,The Coffee Bean and Tea Leaf - Marine Cove,1.3010559,103.9128934,4,5,6,9,4,5,6,9,4,5,6,9,4,5,6,9,4,5,6,9,2,2,2,2,2,2,2,2,2,2,2,2,2,2,2,2,2,2,2,2,2,2,2,2,coffeeshop,1
375,MT 59 Food House,1.3058009,103.9142782,4,5,5.5,0,4,5,5.5,0,4,5,5.5,0,4,5,5.5,0,4,5,5.5,0,0,0,0,1,2,2,2,2,2,2,1.5,0,0,0,0,1,2,2,2,2,2,2,1.5,0,coffeeshop,1
376,Hua Hua Eating House,1.3028639,103.9069211,4,5,6,1,4,5,6,1,4,5,6,1,4,5,6,1,4,5,6,1,0,0,0,2,2,2,2,2,2,2,2,0,0,0,0,2,2,2,2,2,2,2,2,0,coffeeshop,1
377,Good Chai People,1.3076067,103.9072165,3,5,2,0,3,5,2,0,3,5,2,0,3,5,2,0,3,5,2,0,0,0,0,0,2,2,2,2,2,0,0,0,0,0,0,0,2,2,2,2,2,0,0,0,coffeeshop,1
378,Five Oars Coffee Roasters,1.3123615,103.9255243,3,5,6,0,3,5,6,0,3,5,6,0,3,5,6,0,3,5,6,0,0,0,0,0,2,2,2,2,2,2,2,0,0,0,0,0,2,2,2,2,2,2,2,0,coffeeshop,1
379,Bloom Coffee,1.3133336,103.9278689,3,5,1.5,0,0,0,0,0,3,5,1.5,0,3,5,1.5,0,3,5,1.5,0,0,0,0,0,1,2,2,2,2,0,0,0,0,0,0,0,1,2,2,2,2,0,0,0,coffeeshop,1
380,Craftsmen Specialty Coffee (Siglap),1.3129548,103.9233939,3.5,5,4,0,3.5,5,4,0,3.5,5,4,0,3.5,5,4,0,3.5,5,4,0,0,0,0,0.5,2,2,2,2,2,2,0,0,0,0,0,0.5,2,2,2,2,2,2,0,0,coffeeshop,1
381,Dutch Colony Coffee Co.,1.3142592,103.9195062,3,5,2,0,3,5,2,0,3,5,2,0,3,5,2,0,3,5,5,0,0,0,0,0,2,2,2,2,2,2,1,0,0,0,0,0,2,2,2,2,2,2,1,0,coffeeshop,1
382,Killiney Kopitiam,1.3128593,103.9256859,4,5,4,0,4,5,4,0,4,5,4,0,4,5,4,0,4,5,4,0,0,0,0,1,2,2,2,2,2,2,0,0,0,0,0,1,2,2,2,2,2,2,0,0,coffeeshop,1
383,Percolate Coffee,1.3282621,103.935252,2,5,3,0,2,5,3,0,2,5,3,0,2,5,3,0,2,5,3,0,0,0,0,0,1,2,2,2,2,1,0,0,0,0,0,0,1,2,2,2,2,1,0,0,coffeeshop,1
384,Soy Eu Tua Coffee Shop,1.312852,103.925738,4,5,3,0,4,5,6,0.75,4,5,6,0.75,4,5,6,0.75,4,5,6,0.75,0,0,0,1,2,2,2,2,2,2,2,0.75,0,0,0,1,2,2,2,2,2,2,2,0.75,coffeeshop,1
385,Siglap 936 Food House,1.3123939,103.9253354,4,5,6,9,4,5,6,9,4,5,6,9,4,5,6,9,4,5,6,9,2,2,2,2,2,2,2,2,2,2,2,2,2,2,2,2,2,2,2,2,2,2,2,2,coffeeshop,1
386,3838 Eating Place,1.3122727,103.9230144,4,5,6,1,4,5,6,1,4,5,6,1,4,5,6,1,4,5,6,1,0,0,0,1.5,2,2,2,2,2,2,2,0.5,0,0,0,1.5,2,2,2,2,2,2,2,0.5,coffeeshop,1
387,The Bullion Hawker Bar,1.3087217,103.9118061,3,5,6,2,3,5,6,2,3,5,6,2,3,5,6,2,3,5,6,2,0,0,0,0,2,2,2,2,2,2,2,2,0,0,0,0,2,2,2,2,2,2,2,2,coffeeshop,1
388,Fu Fa Coffee Shop,1.3147193,103.9095505,3,5,5,0,3,5,5,0,3,5,5,0,3.5,5,6,0,3,5,5,0,0,0,0,0,2,2,2,2,2,2,1,0,0,0,0,0,2,2,2,2,2,2,1,0,coffeeshop,1
389,25 Brew Coffee Pte. Ltd.,1.323015,103.9336395,3.5,5,6,0,3.5,5,6,0,3.5,5,6,0,3.5,5,6,0,3.5,5,6,0,0,0,0,0.5,2,2,2,2,2,2,2,0,0,0,0,0.5,2,2,2,2,2,2,2,0,coffeeshop,1
390,Starbucks,1.3129386,103.9255188,3.5,5,6,0,3.5,5,6,0,3.5,5,6,0,3.5,5,6,0,3.5,5,6,1,0,0,0,0.5,2,2,2,2,2,2,2,1,0,0,0,0.5,2,2,2,2,2,2,2,0,coffeeshop,1
391,K?h? Roastery & Coffee Bar,1.3101402,103.9022259,3,5,2,0,3,5,2,0,3,5,2,0,3,5,2,0,3,5,2,0,0,0,0,0,2,2,2,2,2,0,0,0,0,0,0,0,2,2,2,2,2,0,0,0,coffeeshop,1
392,chong hock eating house,1.3295814,103.6523747,4,5,2,2,4,5,2,2,4,5,2,2,4,5,2,2,4,5,2,2,0,0,1,2,2,2,2,1,0,0,0,0,0,0,0,0,0,0,0,0,0,0,0,0,coffeeshop,1
393,Orange 7 Big Canteen,1.333004,103.6446917,4,5,4,2,4,5,4,2,4,5,4,2,4,5,4,2,4,5,4,2,0,0,1,2,2,2,2,2,2,1,0,0,0,0,0,2,2,2,2,2,0,0,0,0,coffeeshop,1
394,Liu Ji Sliced Fish Soup,1.3171473,103.6666233,4,5,5.5,1,4,5,5.5,1,4,5,5.5,1,4,5,5.5,1,4,5,5.5,1,0,0,0,2,2,2,2,2,2,2,1.5,0,0,0,0,2,2,2,2,2,2,2,1.5,0,coffeeshop,1
395,Tuas Village,1.3215237,103.656673,4,5,2,0.5,4,5,2,0.5,4,5,2,0.5,4,5,2,0.5,4,5,2,0.5,0,0,0,1.5,2,2,2,2,2,0,0,0,0,0,0,1.5,2,2,2,2,2,0,0,0,coffeeshop,1
396,Xing Xing Mixed Curry Rice ???????,1.3173007,103.6664187,4,3,0,1,4,3,0,1,4,3,0,1,4,3,0,1,4,3,0,1,0,0,0,2,2,2,0,0,0,0,0,0,0,0,0,0,0,0,0,0,0,0,0,0,coffeeshop,1
397,Muslim Chicken Rice Stall,1.3175094,103.65324,3,4,0,0,3,4,0,0,3,4,0,0,3,4,0,0,3,4,0,0,0,0,0,0,0,0,0,0,0,0,0,0,0,0,0,0,0,0,0,0,0,0,0,0,coffeeshop,1
398,Chuang Hock Eating House,1.3171299,103.6664112,4,5,1.75,2,4,5,1.75,2,4,5,1.75,2,4,5,1.75,2,4,5,1.75,2,0,0,1,2,2,2,2,2,0,0,0,0,0,0,0,0,0,0,0,0,0,0,0,0,coffeeshop,1
399,Suzuki Cafe and Roastery,1.3340823,103.7136589,0,0,0,0,1,5,1,0,1,5,1,0,1,5,1,0,1,5,1,0,0,0,0,0,0,2,2,2,0,0,0,0,0,0,0,0,0,2,2,2,0,0,0,0,coffeeshop,1
400,Kiang Tiang Tan,1.3095049,103.71832,4,5,5,1,4,5,5,1,4,5,5,1,4,5,5,1,4,5,5,1,0,0,0,0,1,2,2,2,2,2,0,0,0,0,0,0,1,2,2,2,2,2,0,0,coffeeshop,1
401,C&S Food Junction Pte Ltd,1.3138915,103.7254775,4,5,5,1.5,4,5,5,1.5,4,5,5,1.5,4,5,5,1.5,4,5,5,1.5,0,0,0,1,2,2,2,2,2,2,1,0,0,0,0,0,0,0,0,0,0,0,0,0,coffeeshop,1
402,Tastebud Corporation Drive Eating House,1.3266935,103.7230938,1,5,5.5,0,1,5,5.5,0,1,5,5.5,0,1,5,5.5,0,1,5,5.5,0,0,0,0,0,0,2,2,2,2,2,1.5,0,0,0,0,0,0,2,2,2,2,2,1.5,0,coffeeshop,1
403,Penjuru Foodcourt,1.3214137,103.7368898,4,5,6,9,4,5,6,9,4,5,6,9,4,5,6,9,4,5,6,9,2,2,2,2,2,2,2,2,2,2,2,2,2,2,2,2,2,2,2,2,2,2,2,2,coffeeshop,1
404,90?,1.3208324,103.7431335,4,5,5,2,4,5,5,2,4,5,5,2,4,5,5,2,4,5,5,2,0,0,1,2,2,2,2,2,2,2,1,0,0,0,1,2,2,2,2,2,2,2,1,0,coffeeshop,1
405,MakanShiok,1.3209128,103.7381523,4,5,6,3.5,4,5,6,3.5,4,5,6,3.5,4,5,6,3.5,4,5,6,3.5,0,0,0,2,2,2,2,2,2,2,2,2,0,0,0,2,2,2,2,2,2,2,2,2,coffeeshop,1
406,Bespresso Pte Ltd,1.3250851,103.7467721,2,5,2,0,2,5,2,0,2,5,2,0,2,5,2,0,2,5,2,0,0,0,0,0,0,0,0,0,0,0,0,0,0,0,0,0,0,0,0,0,0,0,0,0,coffeeshop,1
407,Chun Bee Mei Shi,1.3220967,103.7384605,4,5,6,6,4,5,6,6,4,5,6,6,4,5,6,6,4,5,6,6,2,1,0,2,2,2,2,2,2,2,2,2,2,1,0,2,2,2,2,2,2,2,2,2,coffeeshop,1
408,??? (Ren Le Fang) - Happy Coffee Place,1.3207516,103.7468548,0,0,0,0,3,5,2,0,3,5,2,0,3,5,2,0,3,5,2,0,0,0,0,0,0,2,2,2,2,1,0,0,0,0,0,0,0,2,2,2,2,1,0,0,coffeeshop,1
409,Good Coffee Please,1.3347557,103.7443441,3,5,3,0,3,5,3,0,3,5,3,0,3,5,3,0,3,5,3,0,0,0,0,0,0,0,2,2,2,1,0,0,0,0,0,0,0,0,2,2,2,1,0,0,coffeeshop,1
410,ICafe,1.3119463,103.7512756,3,5,3,0,3,5,4.5,0,3,5,4.5,0,3,5,4.5,0,3,5,4.5,0,0,0,0,0,2,2,2,2,2,2,0.5,0,0,0,0,0,2,2,2,2,2,1,0,0,coffeeshop,1
411,Glass Roasters,1.320423,103.756476,2,5,2,0,0,0,0,0,2,5,2,0,2,5,2,0,2,5,2,0,0,0,0,0,1,2,2,2,2,0,0,0,0,0,0,0,1,2,2,2,2,0,0,0,coffeeshop,1
412,Baker & Cook - Faber Drive,1.3204281,103.7563832,3.5,5,4.5,0,3.5,5,4.5,0,3.5,5,4.5,0,3.5,5,4.5,0,3.5,5,6,0,0,0,0,0.5,2,2,2,2,2,2,2,0,0,0,0,0.5,2,2,2,2,2,2,2,0,coffeeshop,1
413,Ming Soon Fatt Food Centre,1.3095506,103.7561123,1.5,5,5.5,0,1.5,5,5.5,0,1.5,5,5.5,0,1.5,5,5.5,0,1.5,5,5.5,0,0,0,0,0,0.5,2,2,2,2,2,1.5,0,0,0,0,0,0,1,2,2,2,2,1.5,0,coffeeshop,1
414,Cloud Faber,1.3204664,103.7565298,2,5,6,0,0,0,0,0,2,5,6,0,2,5,6,0,2,5,6,0.5,0,0,0,0,1,2,2,2,2,2,2,0.5,0,0,0,0,1,2,2,2,2,2,2,0,coffeeshop,1
415,Jovis Cafe - The Dining Place,1.3206031,103.7566754,0,5,5.5,0,0,5,5.5,0,0,5,5.5,0,0,0,0,0,0.5,5,5.5,0,0,0,0,0,0,1.5,2,2,2,2,1.5,0,0,0,0,0,0,1.5,2,2,2,2,1.5,0,coffeeshop,1
416,Espresso Labs!,1.317986,103.7653953,0,0,0,0,0,0,0,0,0,0,0,0,0,0,0,0,0,0,0,0,0,0,0,0,0,0,0,0,0,0,0,0,0,0,0,0,0,2,2,0,0,0,0,0,coffeeshop,1
417,High Inn Eating House,1.314037,103.7643992,4,5,6,2,4,5,6,2,4,5,6,2,4,5,6,2,4,5,6,2,0,0,0,2,2,2,2,2,2,2,2,1,0,0,0,2,2,2,2,2,2,2,2,1,coffeeshop,1
418,Rich Food & Beverage,1.3173082,103.7674317,4,5,6,1,4,5,6,1,4,5,6,1,4,5,6,1,4,5,6,1,0,0,0,1.5,2,2,2,2,2,2,2,0.5,0,0,0,1.5,2,2,2,2,2,2,2,0.5,coffeeshop,1
419,328 Food House,1.3139166,103.7670706,4,5,6,5,4,5,6,5,4,5,6,5,4,5,6,5,4,5,6,5,2,0,0,2,2,2,2,2,2,2,2,2,2,0,0,2,2,2,2,2,2,2,2,2,coffeeshop,1
420,Toast Box,1.3148768,103.7646849,3.5,5,5.5,0,3.5,5,5.5,0,3.5,5,5.5,0,3.5,5,5.5,0,3.5,5,5.5,0,0,0,0,0.5,2,2,2,2,2,2,1.5,0,0,0,0,0,0,0,0,0,0,0,0,0,coffeeshop,1
421,Starbucks,1.3153641,103.7645386,3.5,5,6,0,3.5,5,6,0,3.5,5,6,0,3.5,5,6,0,3.5,5,6,0,0,0,0,0.5,2,2,2,2,2,2,2,0,0,0,0,0.5,2,2,2,2,2,2,2,0,coffeeshop,1
422,Bistro8@Clementi,1.3136699,103.7641849,4,5,6,9,4,5,6,9,4,5,6,9,4,5,6,9,4,5,6,9,2,2,2,2,2,2,2,2,2,2,2,2,2,2,2,2,2,2,2,2,2,2,2,2,coffeeshop,1
423,Foodfare @ Ghim Moh Edge,1.3084162,103.784473,4,5,6,2,4,5,6,2,4,5,6,2,4,5,6,2,4,5,6,2,0,0,0,2,2,2,2,2,2,2,2,1,0,0,0,2,2,2,2,2,2,2,2,1,coffeeshop,1
424,SPGG Coffee Hub,1.3096121,103.774664,3,5,2,0,3,5,2,0,3,5,2,0,3,5,2,0,3,5,2,0,0,0,0,0,2,2,2,2,2,0,0,0,0,0,0,0,2,2,2,2,2,0,0,0,coffeeshop,1
425,Starbucks,1.3175566,103.7860522,3.5,5,5,0,3.5,5,5,0,3.5,5,5,0,3.5,5,5,0,3.5,5,5,0,0,0,0,0.5,2,2,2,2,2,2,1,0,0,0,0,0.5,2,2,2,2,2,2,1,0,coffeeshop,1
426,Kimly Coffeeshop (881 Clementi),1.3177038,103.7687609,4,5,6,9,4,5,6,9,4,5,6,9,4,5,6,9,4,5,6,9,2,2,2,2,2,2,2,2,2,2,2,2,2,2,2,2,2,2,2,2,2,2,2,2,coffeeshop,1
427,Kopi Wu,1.3095225,103.7684427,4,5,5.5,0,4,5,5.5,0,4,5,5.5,0,4,5,5.5,0,4,5,5.5,0,0,0,0,1,2,2,2,2,2,2,1.5,0,0,0,0,1,2,2,2,2,2,2,1.5,0,coffeeshop,1
428,Mohamadia Coffee Stall,1.3140925,103.7707267,4,5,6,4.333333333,4,5,6,4.333333333,4,5,6,4.333333333,4,5,6,4.333333333,4,5,6,4.333333333,1,0,0,2,2,2,2,2,2,2,2,2,1,0,0,2,2,2,2,2,2,2,2,2,coffeeshop,1
429,New Century Cafe,1.3114247,103.7879075,3.5,5,6,0,3.5,5,6,0,3.5,5,6,0,3.5,5,6,0,3.5,5,6,0,0,0,0,0.5,2,2,2,2,2,2,2,0,0,0,0,0.5,2,2,2,2,2,2,2,0,coffeeshop,1
430,Swee Lee Social Club,1.3070783,103.7882213,0.5,5,4,0,0.5,5,4,0,0.5,5,4,0,0.5,5,4,0,0.5,5,4,0,0,0,0,0,0,1.5,2,2,2,2,0,0,0,0,0,0,0,1.5,2,2,2,2,0,0,coffeeshop,1
431,Craftsmen Specialty Coffee (Holland V),1.31178,103.795252,2.5,5,4,0,2.5,5,4,0,2.5,5,4,0,2.5,5,4,0,2.5,5,6,0,0,0,0,0,1.5,2,2,2,2,2,2,0,0,0,0,0,1.5,2,2,2,2,2,0,0,coffeeshop,1
432,Holland V Coffee and Drink,1.3112134,103.7950362,3,5,3,4,3,5,3,0,3,5,3,0,3,5,3,0,3,5,3,0,0,0,0,0,2,2,2,2,2,1,0,0,0,0,0,0,2,2,2,2,2,2,2,2,coffeeshop,1
433,Tiong Bahru Bakery,1.310647,103.796445,3.5,5,3,0,3.5,5,3,0,3.5,5,3,0,3.5,5,3,0,3.5,5,3,0,0,0,0,0.5,2,2,2,2,2,1,0,0,0,0,0,0.5,2,2,2,2,2,1,0,0,coffeeshop,1
434,Rice Garden,1.3070947,103.7934746,3,5,6,0,3,5,6,0,3,5,6,0,3,5,6,0,3,5,6,0,0,0,0,0,2,2,2,2,2,2,2,0,0,0,0,0,2,2,2,2,2,2,2,0,coffeeshop,1
435,Holla @ Holland,1.3107566,103.7949981,4,5,6,4,4,5,6,4,4,5,6,4,4,5,6,4,4,5,6,4,1,0,0,2,2,2,2,2,2,2,2,2,2,0,0,0,0,1,2,2,2,2,2,2,coffeeshop,1
436,Kim Hua Coffee Stall,1.3083797,103.793076,3,5,6,0,3,5,6,0,3,5,6,0,3,5,6,0,3,5,6,0,0,0,0,0,2,2,2,2,2,2,2,0,0,0,0,0,2,2,2,2,2,2,2,0,coffeeshop,1
437,Guan Seng Coffee Powder,1.311102,103.794943,2,5,4,0,2,5,4,0,2,5,4,0,2,5,4,0,2,5,4,0,0,0,0,0,1,2,2,2,2,2,0,0,0,0,0,0,1,2,2,2,2,2,0,0,coffeeshop,1
438,Cafe O,1.3107074,103.7960913,3.5,5,4,0,3.5,5,4,0,3.5,5,4,0,3.5,5,4,0,3.5,5,4,0,0,0,0,0.5,2,2,2,2,2,2,0,0,0,0,0,0.5,2,2,2,2,2,2,0,0,coffeeshop,1
439,Fun Toast,1.307062,103.7880149,2,5,5,0,2,5,5,0,2,5,5,0,2,5,5,0,2,5,5,0,0,0,0,0,1,2,2,2,2,2,1,0,0,0,0,0,1,2,2,2,2,2,1,0,coffeeshop,1
440,Baker & Cook - Chip Bee Gardens,1.3116993,103.7967674,3.5,5,3,0,3.5,5,3,0,3.5,5,3,0,3.5,5,3,0,3.5,5,4,0,0,0,0,0.5,2,2,2,2,2,2,0,0,0,0,0,0.5,2,2,2,2,2,2,0,0,coffeeshop,1
441,Coffee Plus,1.3193203,103.8086676,2.5,5,5,0,2.5,5,5,0,2.5,5,5,0,2.5,5,5,0,2.5,5,5,0,0,0,0,0,1.5,2,2,2,2,2,1,0,0,0,0,0,1.5,2,2,2,2,2,1,0,coffeeshop,1
442,101 Coffee Place,1.3069333,103.8003844,4,3.5,0,0.5,4,3.5,0,0.5,4,3.5,0,0.5,4,3.5,0,0.5,4,3.5,0,0.5,0,0,0,1.5,2,2,2,0,0,0,0,0,0,0,0,1.5,2,2,2,0,0,0,0,0,coffeeshop,1
443,Bee's Knees at The Garage,1.318974,103.815589,3,5,6,0,3,5,6,0,3,5,6,0,3,5,6,0,3,5,6,0,0,0,0,0,2,2,2,2,2,2,2,0,0,0,0,0,2,2,2,2,2,2,2,0,coffeeshop,1
444,Killiney Kopitiam Serene Centre,1.3226736,103.8136446,3,5,0,0,3,5,0,0,3,5,0,0,3,5,0,0,3,5,0,0,0,0,0,0,2,2,2,2,0,0,0,0,0,0,0,0,2,2,2,2,0,0,0,0,coffeeshop,1
445,Atlas Coffeehouse,1.3228827,103.811981,0,0,0,0,3,5,3,0,3,5,3,0,3,5,3,0,3,5,3,0,0,0,0,0,2,2,2,2,2,1,0,0,0,0,0,0,2,2,2,2,2,1,0,0,coffeeshop,1
446,PRAIRIE by Craftsmen (Bukit Timah),1.3225821,103.8140517,3,5,5,0,3,5,5,0,3,5,5,0,3,5,5,0,3,5,5,0,0,0,0,0,2,2,2,2,2,2,1,0,0,0,0,0,2,2,2,2,2,2,1,0,coffeeshop,1
447,the RITUAL,1.3195389,103.827332,3,5,2.5,0,3,5,2.5,0,3,5,2.5,0,3,5,2.5,0,3,5,2.5,0,0,0,0,0,2,2,2,2,2,0.5,0,0,0,0,0,0,2,2,2,2,2,0.5,0,0,coffeeshop,1
448,Bacha Coffee ION Orchard,1.3041303,103.8314502,1.5,5,6,0,1.5,5,6,0,1.5,5,6,0,1.5,5,6,0,1.5,5,6,0,0,0,0,0,0.5,2,2,2,2,2,2,0,0,0,0,0,0.5,2,2,2,2,2,2,0,coffeeshop,1
449,Rocky Master,1.307196,103.828453,3.5,5,5.5,0,3.5,5,5.5,0,3.5,5,5.5,0,3.5,5,5.5,0,3.5,5,5.5,0,0,0,0,0.5,2,2,2,2,2,2,1.5,0,0,0,0,0.5,2,2,2,2,2,2,1.5,0,coffeeshop,1
450,The Community Coffee,1.3071993,103.8337716,1.5,5,2.5,0,1.5,5,2.5,0,1.5,5,2.5,0,1.5,5,2.5,0,1.5,5,2.5,0,0,0,0,0,0.5,2,2,2,2,0.5,0,0,0,0,0,0,0.5,2,2,2,2,0.5,0,0,coffeeshop,1
451,The Coffee Bean & Tea Leaf - TANG PLAZA,1.3049283,103.8331385,3,5,6,0,3,5,6,0,3,5,6,0,3,5,6,0,3,5,6,0,0,0,0,0,2,2,2,2,2,2,2,0,0,0,0,0,2,2,2,2,2,2,2,0,coffeeshop,1
452,Toast Box,1.3034613,103.8324145,3.5,5,5.5,0,3.5,5,5.5,0,3.5,5,5.5,0,3.5,5,5.5,0,3.5,5,5.5,0,0,0,0,0.5,2,2,2,2,2,2,1.5,0,0,0,0,0.5,2,2,2,2,2,2,1.5,0,coffeeshop,1
453,Tiong Hoe Specialty Coffee (Balmoral Plaza),1.3167475,103.8352596,3,5,0.75,0,3,5,0.75,0,3,5,0.75,0,3,5,0.75,0,3,5,0.75,0,0,0,0,0,2,2,2,2,0.75,0,0,0,0,0,0,0,2,2,2,2,0.75,0,0,0,coffeeshop,1
454,Puzzle Coffee,1.3033808,103.832163,2,5,4,0,2,5,4,0,2,5,4,0,2,5,4,0,2,5,5,0,0,0,0,0,1,2,2,2,2,2,1,0,0,0,0,0,1,2,2,2,2,2,0,0,coffeeshop,1
455,Huggs Coffee,1.3214019,103.846195,4,5,3,0,4,5,3,0,4,5,3,0,4,5,3,0,4,5,3,0,0,0,0,0.5,2,2,2,2,1,0,0,0,0,0,0,0.5,2,2,2,2,1,0,0,0,coffeeshop,1
456,Craftsmen Specialty Coffee (Thomson),1.3179622,103.843302,3.5,5,4,0,3.5,5,4,0,3.5,5,4,0,3.5,5,4,0,3.5,5,4,0,0,0,0,0,2,2,2,2,2,2,0,0,0,0,0,0,2,2,2,2,2,2,0,0,coffeeshop,1
457,Starbucks,1.3034811,103.8356164,3.5,5,6,0,3.5,5,6,0,3.5,5,6,0,3.5,5,6,0,3.5,5,6,0,0,0,0,0.5,2,2,2,2,2,2,2,0,0,0,0,0.5,2,2,2,2,2,2,2,0,coffeeshop,1
458,Trishaw Coffee House,1.3169689,103.8418242,2,5,5,0,2,5,5,0,2,5,5,0,2,5,5,0,2,5,5,0,0,0,0,0,1,2,2,2,2,2,1,0,0,0,0,0,1,2,2,2,2,2,1,0,coffeeshop,1
459,The Coffee Bean & Tea Leaf,1.3165013,103.8353836,4,5,6,9,4,5,6,9,4,5,6,9,4,5,6,9,4,5,6,9,2,2,2,2,2,2,2,2,2,2,2,2,2,2,2,2,2,2,2,2,2,2,2,2,coffeeshop,1
460,The Coffee Bean and Tea Leaf - Novena Square,1.3203041,103.8437444,3.5,5,5.5,0,3.5,5,5.5,0,3.5,5,5.5,0,3.5,5,5.5,0,3.5,5,5.5,0,0,0,0,0.5,2,2,2,2,2,2,1.5,0,0,0,0,1,2,2,2,2,2,2,1.5,0,coffeeshop,1
461,La Ristrettos Coffee Roastery,1.3206169,103.8441255,2,5,1.5,0,2,5,1.5,0,2,5,1.5,0,2,5,1.5,0,2,5,1.5,0,0,0,0,0,1,2,2,0,0,0,0,0,0,0,0,0,0,0,0,0,0,0,0,0,coffeeshop,1
462,Coffee Hive (Square 2),1.3206317,103.8442334,4,5,4.5,0,4,5,4.5,0,4,5,4.5,0,4,5,4.5,0,4,5,4.5,0,0,0,0,1,2,2,2,2,2,2,0.5,0,0,0,0,0,1,2,2,2,2,2,0.5,0,coffeeshop,1
463,The Coffee Bean and Tea Leaf,1.3213321,103.8458189,4,5,6,9,4,5,6,9,4,5,6,9,4,5,6,9,4,5,6,9,2,2,2,2,2,2,2,2,2,2,2,2,2,2,2,2,2,2,2,2,2,2,2,2,coffeeshop,1
464,Kith Cafe Isetan,1.3054617,103.8316469,1,5,5,0,1,5,5,0,1,5,5,0,1,5,5,0,1,5,5,0,0,0,0,0,0,2,2,2,2,2,1,0,0,0,0,0,0,2,2,2,2,2,1,0,coffeeshop,1
465,Asylum Coffeehouse,1.3113656,103.8590517,3,5,0.5,0,3,5,0.5,0,3,5,0.5,0,3,5,0.5,0,3,5,0.5,0,0,0,0,0,2,2,2,2,0.5,0,0,0,0,0,0,0,2,2,2,2,0.5,0,0,0,coffeeshop,1
466,Big City Coffee House,1.3104783,103.8562871,4,5,6,3,4,5,6,3,4,5,6,3,4,5,6,3,4,5,6,3,1,0,0,1,2,2,2,2,2,2,2,2,1,0,0,1,2,2,2,2,2,2,2,2,coffeeshop,1
467,Chye Seng Huat Hardware,1.3115404,103.8603828,2.5,5,6,0,2.5,5,6,0,2.5,5,6,0,2.5,5,6,0,2.5,5,6,0,0,0,0,0,1.5,2,2,2,2,2,2,0,0,0,0,0,1.5,2,2,2,2,2,2,0,coffeeshop,1
468,Bistro8@Foch Road,1.3124383,103.8603487,4,5,6,5,4,5,6,5,4,5,6,5,4,5,6,5,4,5,6,5,2,1,0,1,2,2,2,2,2,2,2,2,2,1,0,1,2,2,2,2,2,2,2,2,coffeeshop,1
469,Kopi & Tarts,1.3112975,103.8563248,2.5,5,5,0,2.5,5,5,0,2.5,5,5,0,2.5,5,5,0,2.5,5,5,0,0,0,0,0,1.5,2,2,2,2,2,1,0,0,0,0,0,1.5,2,2,2,2,2,1,0,coffeeshop,1
470,The Annex (within Chye Seng Huat Hardware),1.3115963,103.8603424,2,5,5,0,2,5,5,0,2,5,5,0,2,5,5,0,2,5,5,0,0,0,0,0,1,2,2,2,2,2,1,0,0,0,0,0,1,2,2,2,2,2,1,0,coffeeshop,1
471,The Coffee Bean & Tea Leaf - City Square Mall,1.3116685,103.8562595,3,5,6,0,3,5,6,0,3,5,6,0,3,5,6,0,3,5,6,0,0,0,0,0,2,2,2,2,2,2,2,0,0,0,0,0,2,2,2,2,2,2,2,0,coffeeshop,1
472,JDS Singapore Coffeeshop,1.3125961,103.8603691,4,5,6,9,4,5,6,9,4,5,6,9,4,5,6,9,4,5,6,9,2,2,2,2,2,2,2,2,2,2,2,2,2,2,2,2,2,2,2,2,2,2,2,2,coffeeshop,1
473,Black Fairy Coffee & Grill,1.3113498,103.8598442,0,1,6,0,0,1,6,0,0,1,6,0,0,1,6,0,0,1,6,2,0,0,0,0,0.5,2,2,2,2,2,2,2,0,0,0,0,0.5,2,2,2,2,2,1,0,coffeeshop,1
474,K 24 Coffee Station,1.3104783,103.8562871,3,5,2,0,3,5,2,0,3,5,2,0,3,5,2,0,3,5,2,0,0,0,0,0,2,2,2,2,2,0,0,0,0,0,0,0,2,2,2,2,2,0,0,0,coffeeshop,1
475,Lee Seng Coffee Stall,1.3073307,103.8568765,1.5,5,4,0,1.5,5,4,0,1.5,5,4,0,1.5,5,4,0,1.5,5,4,0,0,0,0,0,0.5,2,2,2,2,2,0,0,0,0,0,0,1,2,2,2,2,0.5,0,0,coffeeshop,1
476,Generation Coffee Roasters (Tekka),1.3063839,103.8507014,4,4,0,0,4,4,0,0,4,4,0,0,4,4,0,0,4,4,0,0,0,0,0,1,2,2,1,0,0,0,0,0,0,0,0,0,0,0,0,0,0,0,0,0,coffeeshop,1
477,Chang Cheng Mee Wah Coffeeshop,1.3188579,103.8628338,4,5,6,2.5,4,5,6,2.5,4,5,6,2.5,4,5,6,2.5,4,5,6,2.5,0,0,0,2,2,2,2,2,2,2,2,1,0,0,0,2,2,2,2,2,2,2,2,1,coffeeshop,1
478,Coffee Tavern Pte Ltd,1.3188867,103.8627089,3,5,5,0,3,5,5,0,3,5,5,0,3,5,5,0,3,5,5,0,0,0,0,0,2,2,2,2,2,2,1,0,0,0,0,0,2,2,2,2,2,2,1,0,coffeeshop,1
479,Food Haven Coffeeshop,1.3126584,103.8720056,4,5,6,2.5,4,5,6,2.5,4,5,6,2.5,4,5,6,2.5,4,5,6,2.5,0,0,0,2,2,2,2,2,2,2,2,1.5,0,0,0,2,2,2,2,2,2,2,2,1.5,coffeeshop,1
480,Ai Cafe Singapore - Best Cafe Singapore,1.3105979,103.860806,0,5,6,1,0,5,6,1,0,5,6,1,0,5,6,1,0,5,6,1,0,0,0,0,0,1,2,2,2,2,2,1,0,0,0,0,0,1,2,2,2,2,2,1,coffeeshop,1
481,Sin Sheng Hui Coffee Shop,1.3207077,103.8699009,3,5,4,0,3,5,4,0,3,5,4,0,3,5,4,0,3,5,4,0,0,0,0,0,2,2,2,2,2,2,0,0,0,0,0,0,2,2,2,2,2,2,0,0,coffeeshop,1
482,BK@Kallang Bahru,1.321435,103.8686524,4,5,6,4,4,5,6,9,4,5,6,9,4,5,6,9,4,5,6,9,2,2,2,2,2,2,2,2,2,2,2,2,2,2,2,2,2,2,2,2,2,2,2,2,coffeeshop,1
483,Banana Cafe @ BR,1.303535,103.8646138,4,5,6,2,4,5,6,2,4,5,6,2,4,5,6,2,4,5,6,2,0,0,0,2,2,2,2,2,2,2,2,1,0,0,0,2,2,2,2,2,2,2,2,1,coffeeshop,1
484,First Eating House,1.3211216,103.8695945,4,5,6,3,4,5,6,3,4,5,6,3,4,5,6,3,4,5,6,3,0,0,0,2,2,2,2,2,2,2,2,2,0,0,0,2,2,2,2,2,2,2,2,2,coffeeshop,1
485,218 Coffeeshop,1.312096,103.8770052,4,5,6,1.5,4,5,6,1.5,4,5,6,1.5,4,5,6,1.5,4,5,6,1.5,0,0,0,1.5,2,2,2,2,2,2,2,1,0,0,0,1.5,2,2,2,2,2,2,2,1,coffeeshop,1
486,45 Brewcoffee Pte Ltd,1.3174127,103.8783863,3,5,5,0,3,5,5,0,3,5,5,0,3,5,5,0,3,5,5,0,0,0,0,0.5,2,2,2,2,2,2,0.5,0,0,0,0,0,2,2,2,2,2,2,1,0,coffeeshop,1
487,Keng Wah Sung Cafe,1.3151236,103.8915396,4,5,6,2.5,4,5,6,2.5,4,5,6,2.5,4,5,6,2.5,4,5,6,2.5,0,0,0,2,2,2,2,2,2,2,2,1,0,0,0,0,0,0,0,0,0,0,0,0,coffeeshop,1
488,Thumbupz Coffeehouse ???,1.3140613,103.8875659,4,5,6,3,4,5,6,3,4,5,6,3,4,5,6,3,4,5,6,3,0,0,0,2,2,2,2,2,2,2,2,2,0,0,0,2,2,2,2,2,2,2,2,2,coffeeshop,1
489,Hee Heng Eating House,1.3162628,103.8837308,3.5,5,6,0,3.5,5,6,0,3.5,5,6,0,3.5,5,6,0,3.5,5,6,0,0,0,0,0.5,2,2,2,2,2,2,2,0,0,0,0,0.5,2,2,2,2,2,2,2,0,coffeeshop,1
490,Wah Hong Coffee Shop,1.3140465,103.8875927,4,5,6,1,4,5,6,1,4,5,6,1,4,5,6,1,4,5,6,1,0,0,0,1.5,2,2,2,2,2,2,2,0.5,0,0,0,0,0,0,0,0,0,0,0,0,coffeeshop,1
491,Kian Aik Coffee Fty,1.3211871,103.8895305,4,5,6,1,4,5,6,1,4,5,6,1,4,5,6,1,4,5,6,1,0,0,0,1.5,2,2,2,2,2,2,2,0.5,0,0,0,1.5,2,2,2,2,2,2,2,0.5,coffeeshop,1
492,Sin Hin Restaurant,1.3197021,103.8858792,3,5,6,0,3,5,6,0,3,5,6,0,3,5,6,0,3,5,6,0,0,0,0,0,2,2,2,2,2,2,2,0,0,0,0,0,2,2,2,2,2,2,2,0,coffeeshop,1
493,Hong Wah Coffee Shop,1.3124702,103.8778103,4,5,6,1,4,5,6,1,4,5,6,1,4,5,6,1,4,5,6,1,0,0,0,1.5,2,2,2,2,2,2,2,0.5,0,0,0,0,0,0,0,0,0,0,0,0,coffeeshop,1
494,Sheng Hui Coffee Shop,1.3169778,103.8785379,4,5,6,1,4,5,6,1,4,5,6,1,4,5,6,1,4,5,6,1,0,0,0,1,2,2,2,2,2,2,2,1,0,0,0,1,2,2,2,2,2,2,2,1,coffeeshop,1
495,FellasCube,1.3132199,103.8833861,4,5,6,0.5,4,5,6,0.5,4,5,6,0.5,4,5,6,0.5,4,5,6,0.5,0,0,0,1,2,2,2,2,2,2,2,0.5,0,0,0,1,2,2,2,2,2,2,2,0.5,coffeeshop,1
496,Lim Kopi,1.3142346,103.8869788,3,5,4,0,4,5,4,0.5,3,5,4,0,3,5,4,0,3,5,4,0,0,0,0,0,2,2,2,2,2,2,0,0,0,0,0,0,2,2,2,2,2,2,0,0,coffeeshop,1
497,Teck Kee Eating House,1.3210818,103.8866892,4,5,6,2,4,5,6,2,4,5,6,2,4,5,6,2,4,5,6,2,0,0,0,1.5,2,2,2,2,2,2,2,1.5,0,0,0,1.5,2,2,2,2,2,2,2,1.5,coffeeshop,1
498,FoodHub @ Aljunied,1.319804,103.8866594,4,5,6,0.5,4,5,6,0.5,4,5,6,0.5,4,5,6,0.5,4,5,6,0.5,0,0,0,1.5,2,2,2,2,2,2,2,0,0,0,0,1.5,2,2,2,2,2,2,2,0,coffeeshop,1
499,Soon Lee Cai Eatery House,1.314066,103.887584,4,5,6,0,4,5,6,0,4,5,6,0,4,5,6,0,4,5,6,0,0,0,0,1,2,2,2,2,2,2,2,0,0,0,0,1,2,2,2,2,2,2,2,0,coffeeshop,1
500,Food Loft,1.3153223,103.883142,4,5,6,9,4,5,6,9,4,5,6,9,4,5,6,9,4,5,6,9,2,2,2,2,2,2,2,2,2,2,2,2,2,2,2,2,2,2,2,2,2,2,2,2,coffeeshop,1
501,Kings Cart Coffee Factory,1.3090864,103.9023852,2,5,1,0,2,5,1,0,2,5,1,0,2,5,1,0,2,5,1,0,0,0,0,0,1,2,2,2,1,0,0,0,0,0,0,0,1,2,2,2,1,0,0,0,coffeeshop,1
502,YONG LI COFFEE STATION,1.3213064,103.9023606,4,5,6,2,4,5,6,2,4,5,6,2,4,5,6,2,4,5,6,2,0,0,0,2,2,2,2,2,2,2,2,1,0,0,0,2,2,2,2,2,2,2,2,1,coffeeshop,1
503,Huggs Coffee,1.3177101,103.893902,3.5,5,1.5,0,3.5,5,1.5,0,3.5,5,1.5,0,3.5,5,1.5,0,3.5,5,6,0,0,0,0,0,0,0,2,2,1,0,0,0,0,0,0,0,0,0,2,2,1,0,0,0,coffeeshop,1
504,Joe & Dough,1.3175619,103.8926903,2,5,5,0,2,5,5,0,2,5,5,0,2,5,5,0,2,5,5.5,0,0,0,0,0,1,2,2,2,2,2,1.5,0,0,0,0,0,1,2,2,2,2,2,1,0,coffeeshop,1
505,Mellvin Coffee Shop,1.3084767,103.9029732,3.5,5,4,0,4,5,5,0,3.5,5,4,0,4,5,5,0,4,5,5,0,0,0,0,1,2,2,2,2,2,2,1,0,0,0,0,0.5,2,2,2,2,2,2,0,0,coffeeshop,1
506,Kimly Coffeeshop (Block 2A HDB Eunos),1.3200776,103.9028733,4,5,6,9,4,5,6,9,4,5,6,9,4,5,6,9,4,5,6,9,2,2,2,2,2,2,2,2,2,2,2,2,2,2,2,2,2,2,2,2,2,2,2,2,coffeeshop,1
507,Hong Lee Coffeeshop,1.3206303,103.9045229,4,5,6,1,4,5,6,1,4,5,6,1,4,5,6,1,4,5,6,1,0,0,0,2,2,2,2,2,2,2,2,0,0,0,0,2,2,2,2,2,2,2,2,0,coffeeshop,1
508,The Coffee Bean and Tea Leaf - SingPost Centre,1.3186658,103.8939462,4,5,6,9,4,5,6,9,4,5,6,9,4,5,6,9,4,5,6,9,2,2,2,2,2,2,2,2,2,2,2,2,2,2,2,2,2,2,2,2,2,2,2,2,coffeeshop,1
509,Coffee Expressions Cafe,1.3148438,103.8947611,1.5,5,5,0,1.5,5,5,0,1.5,5,5,0,1.5,5,5,0,1.5,5,5,0,0,0,0,0,0.5,2,2,2,2,2,1,0,0,0,0,0,0.5,2,2,2,2,2,1,0,coffeeshop,1
510,Coexist Coffee Co.,1.3198865,103.8926179,2.5,5,5,0,2.5,5,5,0,2.5,5,5,0,2.5,5,5,0,2.5,5,5,0,0,0,0,0,1.5,2,2,2,2,2,1,0,0,0,0,0,1.5,2,2,2,2,2,1,0,coffeeshop,1
511,Seng Coffee Bar,1.318879,103.910394,0,5,6,0.5,0,5,6,0.5,0,5,6,0.5,0,5,6,0.5,0,5,6,0.5,0,0,0,0,1,2,2,2,2,2,2,0.5,0,0,0,0,1,2,2,2,2,2,2,0.5,coffeeshop,1
512,The Kopi-Shop,1.3151254,103.9088708,4,5,4,0,4,5,4,0,4,5,4,0,4,5,4,0,4,5,4,0,0,0,0,1,2,2,2,2,2,1,0,0,0,0,0,1,2,2,2,2,2,1.5,0,0,coffeeshop,1
513,Plain Vanilla East Coast,1.307289,103.9065126,3.5,5,3,0,3.5,5,3,0,3.5,5,3,0,3.5,5,3,0,3.5,5,3,0,0,0,0,0.5,2,2,2,2,2,1,0,0,0,0,0,0.5,2,2,2,2,2,1,0,0,coffeeshop,1
514,Tiong Bahru Bakery,1.3131656,103.927376,3.5,5,4,0,3.5,5,4,0,3.5,5,4,0,3.5,5,4,0,3.5,5,4,0,0,0,0,0.5,2,2,2,2,2,2,0,0,0,0,0,0.5,2,2,2,2,2,2,0,0,coffeeshop,1
515,Les Mains Bakehouse,1.3155928,103.9255828,0,0,0,0,3,5,1,0,3,5,1,0,3,5,1,0,3,5,1,0,0,0,0,0,2,2,2,2,1,0,0,0,0,0,0,0,2,2,2,2,1,0,0,0,coffeeshop,1
516,Coffee Shop Dragon Valley Eateries,1.3234465,103.9233369,4,5,6,9,4,5,6,9,4,5,6,9,4,5,6,9,4,5,6,9,2,2,2,2,2,2,2,2,2,2,2,2,2,2,2,2,2,2,2,2,2,2,2,2,coffeeshop,1
517,T&D 136 Coffeeshop,1.3278379,103.9353353,4,5,6,1.333333333,4,5,6,1.333333333,4,5,6,1.333333333,4,5,6,1.333333333,4,5,6,1.333333333,0,0,0,1.5,2,2,2,2,2,2,2,0.833333333,0,0,0,1.5,2,2,2,2,2,2,2,0.833333333,coffeeshop,1
518,SK Coffee,1.3251053,103.940954,4,5,6,1,4,5,6,1,4,5,6,1,4,5,6,1,4,5,6,1,0,0,0,1,2,2,2,2,2,2,2,1,0,0,0,1,2,2,2,2,2,2,2,1,coffeeshop,1
519,Shiweitian Coffee Shop,1.3267772,103.9302885,3,5,6,0.5,3,5,6,0.5,3,5,6,0.5,3,5,6,0.5,3,5,6,0.5,0,0,0,0,2,2,2,2,2,2,2,0.5,0,0,0,0,2,2,2,2,2,2,2,0.5,coffeeshop,1
520,168 Kopitiam,1.3201178,103.9444838,4,5,6,9,4,5,6,9,4,5,6,9,4,5,6,9,4,5,6,9,2,2,2,2,2,2,2,2,2,2,2,2,2,2,2,2,2,2,2,2,2,2,2,2,coffeeshop,1
521,Foodpark coffee shop,1.3193039,103.9432517,4,5,6,0.5,4,5,6,0.5,4,5,6,0.5,4,5,6,0.5,4,5,6,0.5,0,0,0,1.5,2,2,2,2,2,2,2,0,0,0,0,1.5,2,2,2,2,2,2,2,0,coffeeshop,1
522,Ching San Eating House,1.3157762,103.9434458,4,4.5,0,1,4,4.5,0,1,4,4.5,0,1,4,4.5,0,1,4,4.5,0,1,0,0,0,2,2,2,2,2,0,0,0,0,0,0,0,0,0,0,0,0,0,0,0,0,coffeeshop,1
523,Kopitiam Corner,1.3177175,103.9476046,4,5,6,0,4,5,6,0,4,5,6,0,4,5,6,0,4,5,6,0,0,0,0,1,2,2,2,2,2,2,2,0,0,0,0,1,2,2,2,2,2,2,2,0,coffeeshop,1
524,Ban Soon Coffee Stall,1.3204911,103.9353133,4,5,5,0,4,5,5,0,4,5,5,0,4,5,5,0,4,5,5,0,0,0,0,1,2,2,2,2,2,2,1,0,0,0,0,1,2,2,2,2,2,2,1,0,coffeeshop,1
525,Airfield Restaurant,1.320155,103.9445364,4,5,6,9,4,5,6,9,4,5,6,9,4,5,6,9,4,5,6,9,2,2,2,2,2,2,2,2,2,2,2,2,2,2,2,2,2,2,2,2,2,2,2,2,coffeeshop,1
526,Springleaf Eating House,1.3194638,103.9440325,2,5,6,0,2,5,6,0,2,5,6,0,2,5,6,0,2,5,6,0,0,0,0,0,1,2,2,2,2,2,2,0,0,0,0,0,1,2,2,2,2,2,2,0,coffeeshop,1
527,Iman Bistro,1.318767,103.9450805,4,5,6,9,4,5,6,9,4,5,6,9,4,5,6,9,4,5,6,9,2,2,2,2,2,2,2,2,2,2,2,2,2,2,2,2,2,2,2,2,2,2,2,2,coffeeshop,1
528,Café Cartisan Specialty Coffee,1.3318464,103.9463496,1,5,4.5,0,0,0,0,0,1,5,4.5,0,1,5,4.5,0,1,5,5,0,0,0,0,0,0,2,2,2,2,2,1,0,0,0,0,0,0,2,2,2,2,2,1,0,coffeeshop,1
529,Generation Coffee Roasters (Bedok),1.3272482,103.9330387,3.5,3.5,0,0,3.5,3.5,0,0,3.5,3.5,0,0,3.5,3.5,0,0,3.5,3.5,0,0,0,0,0,0.5,2,2,2,0,0,0,0,0,0,0,0,0.5,2,2,2,0,0,0,0,0,coffeeshop,1
530,Power Coffeehouse,1.3316743,103.9397236,2,5,5,0,2,5,5,0,2,5,5,0,2,5,5,0,2,5,5,0,0,0,0,0,1,2,2,2,2,2,1,0,0,0,0,0,1,2,2,2,2,2,1,0,coffeeshop,1
531,Huggs Coffee,1.3343497,103.9626223,3,5,4,0,3,5,4,0,3,5,4,0,3,5,4,0,3,5,4,0,0,0,0,0,1,2,2,2,2,2,1,0,0,0,0,0,1,2,2,2,2,2,1,0,coffeeshop,1
532,another bean,1.3343497,103.9626223,3,5,4,0,3,5,4,0,3,5,4,0,3,5,4,0,3,5,4,0,0,0,0,0,0,1,2,2,2,2,1,0,0,0,0,0,0,1,2,2,2,2,1,0,coffeeshop,1
533,The Coffee Bean & Tea Leaf - Changi City Point,1.334024,103.9628547,3.5,5,6,0.5,3.5,5,6,0.5,3.5,5,6,0.5,3.5,5,6,0.5,3.5,5,6,0.5,0,0,0,0.5,2,2,2,2,2,2,2,0.5,0,0,0,0.5,2,2,2,2,2,2,2,0.5,coffeeshop,1
534,Flash Coffee,1.3342897,103.9624588,2.5,5,5,0,2.5,5,5,0,2.5,5,5,0,2.5,5,5,0,2.5,5,5,0,0,0,0,0,0.5,2,2,2,2,2,1,0,0,0,0,0,0.5,2,2,2,2,2,1,0,coffeeshop,1
535,11CC Pte Ltd,1.3167967,103.9767187,0,0,0,0,3,5,2,0,3,5,2,0,3,5,2,0,3,5,4,0,0,0,0,0,2,2,2,2,2,2,0,0,0,0,0,0,2,2,2,2,2,0,0,0,coffeeshop,1
536,Reakella Cafe,1.3347003,103.9652515,3.5,5,0.5,0,3.5,5,0.5,0,3.5,5,0.5,0,3.5,5,0.5,0,3.5,5,0.5,0,0,0,0,0.5,2,2,0,0,0,0,0,0,0,0,0,0,0,0,0,0,0,0,0,0,coffeeshop,1
537,The Coffee Bean & Tea Leaf - Century Square,1.3523888,103.9438567,4,5,6,9,4,5,6,9,4,5,6,9,4,5,6,9,4,5,6,9,2,2,2,2,2,2,2,2,2,2,2,2,2,2,2,2,2,2,2,2,2,2,2,2,coffeeshop,1
538,Kopifellas,1.3335851,103.9588795,3.5,5,5,0,3.5,5,5,0,3.5,5,5,0,3.5,5,5,0,3.5,5,5,0,0,0,0,0.5,2,2,2,2,2,2,1,0,0,0,0,0.5,2,2,2,2,2,2,1,0,coffeeshop,1
539,Dutch Colony Coffee Co.,1.352202,103.9412621,3,5,5,0,3,5,5,0,3,5,5,0,3,5,5,0,3,5,5,0,0,0,0,0,2,2,2,2,2,2,1,0,0,0,0,0,2,2,2,2,2,2,1,0,coffeeshop,1
540,Great Nanyang Coffee Shop,1.3396805,103.9432271,4,5,3,1,4,5,3,1,4,5,3,1,4,5,3,1,4,5,3,1,0,0,0,2,2,2,2,2,2,0,0,0,0,0,0,0,0,0,0,0,0,0,0,0,coffeeshop,1
541,Spinelli Coffee Company - IBM Place 2 Building,1.336704,103.965216,2.5,5,1,0,2.5,5,1,0,2.5,5,1,0,2.5,5,1,0,2.5,5,1,0,0,0,0,0,0,0,0,0,0,0,0,0,0,0,0,0,0,0,0,0,0,0,0,0,coffeeshop,1
542,Coffee Boy,1.3559931,103.9862754,3,5,6,0,3,5,6,0,3,5,6,0,3,5,6,0,3,5,6,0,0,0,0,0,2,2,2,2,2,2,2,0,0,0,0,0,2,2,2,2,2,2,2,0,coffeeshop,1
543,O'Coffee Club Jewel Roastery,1.3603768,103.9889846,1,5,6,0,1,5,6,0,1,5,6,0,1,5,6,0,1,5,6,0,0,0,0,0,0,2,2,2,2,2,2,0,0,0,0,0,0,2,2,2,2,2,2,0,coffeeshop,1
544,O'Coffee Club T3 Public,1.3552374,103.9865177,4,5,6,9,4,5,6,9,4,5,6,9,4,5,6,9,4,5,6,9,2,2,2,2,2,2,2,2,2,2,2,2,2,2,2,2,2,2,2,2,2,2,2,2,coffeeshop,1
545,Espressoul Cafe,1.356716,103.98651,3,5,5.5,0,3,5,5.5,0,3,5,5.5,0,3,5,5.5,0,3,5,5.5,0,0,0,0,0,2,2,2,2,2,2,1.5,0,0,0,0,0,2,2,2,2,2,2,1.5,0,coffeeshop,1
546,The Coffee Bean and Tea Leaf,1.3544246,103.9605942,4,5,6,9,4,5,6,9,4,5,6,9,4,5,6,9,4,5,6,9,2,2,2,2,2,2,2,2,2,2,2,2,2,2,2,2,2,2,2,2,2,2,2,2,coffeeshop,1
547,The Coffee Bean and Tea Leaf,1.3761859,103.9558001,4,5,6,9,4,5,6,9,4,5,6,9,4,5,6,9,4,5,6,9,2,2,2,2,2,2,2,2,2,2,2,2,2,2,2,2,2,2,2,2,2,2,2,2,coffeeshop,1
548,Blk 440 Coffee Shop,1.3690633,103.9586164,4,5,1,0,0,0,0,0,4,5,1,0,4,5,1,0,4,5,1,0,0,0,0,1,2,2,2,2,1,0,0,0,0,0,0,1,2,2,2,2,1,0,0,0,coffeeshop,1
549,The Coffee Bean & Tea Leaf - Jewel,1.3603059,103.9901949,4,5,6,9,4,5,6,9,4,5,6,9,4,5,6,9,4,5,6,9,2,2,2,2,2,2,2,2,2,2,2,2,2,2,2,2,2,2,2,2,2,2,2,2,coffeeshop,1
550,Coffee Express 2000,1.369306,103.9572914,4,5,6,9,4,5,6,9,4,5,6,9,4,5,6,9,4,5,6,9,2,2,2,2,2,2,2,2,2,2,2,2,2,2,2,2,2,2,2,2,2,2,2,2,coffeeshop,1
551,St 82 Coffee House,1.352108,103.936474,4,5,6,3,4,5,6,3,4,5,6,3,4,5,6,3,4,5,6,3,0,0,0,2,2,2,2,2,2,2,2,2,0,0,0,2,2,2,2,2,2,2,2,2,coffeeshop,1
552,Tuas Kampung,1.3318727,103.6380375,4,5,3,1,4,5,3,1,4,5,3,1,4,5,3,1,4,5,3,1,0,0,0,2,2,2,2,2,2,1,0,0,0,0,0,0,0,0,0,0,0,0,0,0,coffeeshop,1
553,Delisnacks,1.3420243,103.692602,3,5,6,0,3,5,6,0,3,5,6,0,3,5,6,0,3,5,6,0,0,0,0,0,2,2,2,2,2,2,2,0,0,0,0,0,2,2,2,2,2,2,2,0,coffeeshop,1
554,Eating Hut,1.3294718,103.6826714,3,5,5.5,0,3,5,5.5,0,3,5,5.5,0,3,5,5.5,0,3,5,5.5,0,0,0,0,0,2,2,2,2,2,2,1.5,0,0,0,0,0,2,2,2,2,2,2,1.5,0,coffeeshop,1
555,Kopi Breweries,1.3412456,103.6858136,4,5,6,9,4,5,6,9,4,5,6,9,4,5,6,9,4,5,6,9,2,2,2,2,2,2,2,2,2,2,2,2,2,2,2,2,2,2,2,2,2,2,2,2,coffeeshop,1
556,Venture Drive Coffee @ NTU,1.3472346,103.6803875,3,5,1,0,3,5,1,0,3,5,1,0,3,5,0,0,3,5,0,0,0,0,0,0,0,0,0,0,0,0,0,0,0,0,0,0,0,0,0,0,0,0,0,0,coffeeshop,1
557,Ho Hong Eating Place,1.3323779,103.6968109,4,5,6,0.5,4,5,6,0.5,4,5,6,0.5,4,5,6,0.5,4,5,6,0.5,0,0,0,1.5,2,2,2,2,2,2,2,0,0,0,0,1.5,2,2,2,2,2,2,2,0,coffeeshop,1
558,Kim San Leng Pte Ltd,1.3341134,103.6969286,4,5,6,2,4,5,6,2,4,5,6,2,4,5,6,2,4,5,6,2,0,0,0,2,2,2,2,2,2,2,2,1,0,0,0,2,2,2,2,2,2,2,2,1,coffeeshop,1
559,Gourmet Street Canteen,1.3294383,103.6938844,4,5,6,3,4,5,6,3,4,5,6,3,4,5,6,3,4,5,6,3,0,0,1,2,2,2,2,2,2,2,2,1,0,0,1,2,2,2,2,2,2,2,2,1,coffeeshop,1
560,Eating House 815,1.3453191,103.6960057,4,5,6,2,4,5,6,2,4,5,6,2,4,5,6,2,4,5,6,2,0,0,0,2,2,2,2,2,2,2,2,0.5,0,0,0,2,2,2,2,2,2,2,2,0.5,coffeeshop,1
561,Namtan's Kitchen,1.3342486,103.6991658,0,5,4,0,0,5,4,0,0,5,4,0,0,5,4,0,0,5,4,0,0,0,0,0,0,1,2,2,2,2,0,0,0,0,0,0,0,1,2,2,2,2,0,0,coffeeshop,1
562,Kopi & Tarts,1.3392697,103.7051807,4,5,6,1.5,4,5,6,1.5,4,5,6,1.5,4,5,6,1.5,4,5,6,1.5,0,0,0,1,2,2,2,2,2,2,2,0,0,0,0,1,2,2,2,2,2,2,2,0,coffeeshop,1
563,Starbucks,1.3390949,103.7059483,3.5,5,6,1,3.5,5,6,1,3.5,5,6,1,3.5,5,6,1,3.5,5,6,2,2,2,2,2,2,2,2,2,2,2,2,2,0,0,0,0,0,0,2,2,2,2,2,1,coffeeshop,1
564,NTWU Canteen,1.3390715,103.7050898,4,5,6,0.5,4,5,6,0.5,4,5,6,0.5,4,5,6,0.5,4,5,6,0.5,0,0,0,1,2,2,2,2,2,2,2,0.5,0,0,0,1,2,2,2,2,2,2,2,0.5,coffeeshop,1
565,Toast Box,1.3390666,103.70587,3,5,5.5,0,3,5,5.5,0,3,5,5.5,0,3,5,5.5,0,3,5,5.5,0,0,0,0,0,2,2,2,2,2,2,1.5,0,0,0,0,0,2,2,2,2,2,2,1.5,0,coffeeshop,1
566,Fun Toast,1.3399257,103.7062886,3.5,5,4,0,3.5,5,4,0,3.5,5,4,0,3.5,5,4,0,3.5,5,4,0,0,0,0,0.5,2,2,2,2,2,2,0,0,0,0,0,0.5,2,2,2,2,2,2,0,0,coffeeshop,1
567,Jurong Soon Lee Eating House,1.329458,103.7005916,4,5,2,1.25,4,5,2,1.25,4,5,2,1.25,4,5,2,1.25,4,5,2,1.25,0,0,0,2,2,2,2,1,0,0,0,0,0,0,0,0,0,0,0,0,0,0,0,0,coffeeshop,1
568,Taman Jurong Food House,1.3344444,103.7222222,4,5,6,9,4,5,6,9,4,5,6,9,4,5,6,9,4,5,6,9,2,2,2,2,2,2,2,2,2,2,2,2,2,2,2,2,2,2,2,2,2,2,2,2,coffeeshop,1
569,Boon Lay Power Nasi Lemak (Taman Jurong Branch),1.3344604,103.7223496,4,5,6,2,4,5,6,2,4,5,6,2,4,5,6,2,4,5,6,2,0,0,0,2,2,2,2,2,2,2,2,1,0,0,0,2,2,2,2,2,2,2,2,1,coffeeshop,1
570,Nam Hong Coffee Stall ?????,1.3345582,103.7215287,3,5,4,0,3,5,4,0,3,5,4,0,3,5,4,0,3,5,4,0,0,0,0,0,2,2,2,2,2,2,0,0,0,0,0,0,2,2,2,2,2,2,2,2,coffeeshop,1
571,May Siang Snacks,1.3319844,103.7226347,4,5,1,1.5,4,5,1,1.5,4,5,1,1.5,4,5,1,1.5,4,5,1,1.5,0,0,0,0,0,0,0,0,0,0,0,0,0,0,0,0,0,0,0,0,0,0,0,0,coffeeshop,1
572,Hook Coffee,1.3362288,103.7135818,1,5,2,0,1,5,2,0,1,5,2,0,1,5,2,0,1,5,2,0,0,0,0,0,0,0,0,0,0,0,0,0,0,0,0,0,0,0,0,0,0,0,0,0,coffeeshop,1
573,Yeh Lai Siang Coffee ?????,1.3348259,103.7215281,1,5,4.5,0,1,5,4.5,0,1,5,4.5,0,1,5,4.5,0,1,5,4.5,0,0,0,0,0,0,2,2,2,2,2,0.5,0,0,0,0,0,0,2,2,2,2,2,0.5,0,coffeeshop,1
574,158 Food House,1.3284136,103.7225381,4,5,6,2,4,5,6,2,4,5,6,2,4,5,6,2,4,5,6,2,0,0,0,1.5,2,2,2,2,2,2,2,1.5,0,0,0,1.5,2,2,2,2,2,2,2,1.5,coffeeshop,1
575,Yung Sheng Beverage (90),1.3344654,103.7208458,4,5,6,9,4,5,6,9,4,5,6,9,4,5,6,9,4,5,6,9,2,2,2,2,2,2,2,2,2,2,2,2,2,2,2,2,2,2,2,2,2,2,2,2,coffeeshop,1
576,Bee Wha Bar,1.334713,103.739339,4,5,6,0.5,4,5,6,0.5,4,5,6,0.5,4,5,6,0.5,4,5,6,0.5,0,0,0,1,2,2,2,2,2,2,2,0.5,0,0,0,1,2,2,2,2,2,2,2,0.5,coffeeshop,1
577,The Coffee Bean & Tea Leaf - JCube,1.3334476,103.7402323,3,5,6,1,3,5,6,1,3,5,6,1,3,5,6,1,3,5,6,1,0,0,0,0,2,2,2,2,2,2,2,1,0,0,0,0,2,2,2,2,2,2,2,1,coffeeshop,1
578,Coffee Hive (Science Centre Road),1.333194,103.736132,1,5,2,0,1,5,2,0,1,5,2,0,1,5,2,0,1,5,2,0,0,0,0,0,0,2,2,2,2,0,0,0,0,0,0,0,0,2,2,2,2,0,0,0,coffeeshop,1
579,BGAIN 130 Eating House,1.3351107,103.7394292,4,5,6,1,4,5,6,1,4,5,6,1,4,5,6,1,4,5,6,1,0,0,0,1.5,2,2,2,2,2,2,2,0.5,0,0,0,1.5,2,2,2,2,2,2,2,0.5,coffeeshop,1
580,Pullman Bakery Jurong East,1.3326481,103.7397442,2.5,5,4.5,0,2.5,5,4.5,0,2.5,5,4.5,0,2.5,5,4.5,0,2.5,5,4.5,0,0,0,0,0,1.5,2,2,2,2,2,0.5,0,0,0,0,0,1.5,2,2,2,2,2,0.5,0,coffeeshop,1
581,Flash Coffee,1.3335467,103.7429453,3,5,5,0,3,5,5,0,3,5,5,0,3,5,5,0,3,5,5,0,0,0,0,0,2,2,2,2,2,2,1,0,0,0,0,0,2,2,2,2,2,2,1,0,coffeeshop,1
582,Five Grill Kitchen,1.3341897,103.7388698,0,5,6,0.5,0,5,6,0.5,0,5,6,0.5,0,5,6,0.5,0,5,6,0.5,0,0,0,0,0,1,2,2,2,2,2,0.5,0,0,0,0,0,1,2,2,2,2,2,0.5,coffeeshop,1
583,Happy Hawkers,1.33451,103.739496,4,5,6,0,4,5,6,0,4,5,6,0,4,5,6,0,4,5,6,0,0,0,0,1,2,2,2,2,2,2,2,0,0,0,0,1,2,2,2,2,2,2,2,0,coffeeshop,1
584,Maxx Coffee,1.3325776,103.7431039,3,5,5.5,0,3,5,5.5,0,3,5,5.5,0,3,5,5.5,0,3,5,6,0,0,0,0,0,2,2,2,2,2,2,2,0,0,0,0,0,2,2,2,2,2,2,1.5,0,coffeeshop,1
585,The Coffee Bean and Tea Leaf - IMM Building (IMM),1.334998,103.7460627,3,5,6,0.5,3,5,6,0.5,3,5,6,0.5,3,5,6,0.5,3,5,6,1,0,0,0,0,2,2,2,2,2,2,2,1,0,0,0,0,2,2,2,2,2,2,2,0.5,coffeeshop,1
586,Huggs Collective - JEM,1.3334662,103.7435115,2,5,4.25,0,2,5,4.25,0,2,5,4.25,0,2,5,4.25,0,2,5,5.25,0,0,0,0,0,1,2,2,2,2,2,1.25,0,0,0,0,0,1,2,2,2,2,2,0.25,0,coffeeshop,1
587,Base Coffee,1.3310371,103.7482851,0,0,0,0,1,5,5.5,0,1,5,5.5,0,1,5,5.5,0,1,5,5.5,0,0,0,0,0,1,2,2,2,2,2,0,0,0,0,0,0,1,2,2,2,2,2,0,0,coffeeshop,1
588,Starbucks,1.3332443,103.7430198,4,5,6,0,4,5,6,0,4,5,6,0,4,5,6,0,3.5,5,6,0.5,0,0,0,0.5,2,2,2,2,2,2,2,0.5,0,0,0,0.5,2,2,2,2,2,2,2,0,coffeeshop,1
589,Lei Yuen Coffee,1.3212038,103.7666052,3,5,6,1,3,5,6,1,3,5,6,1,3,5,6,1,3,5,6,1,0,0,0,0,2,2,2,2,2,2,2,1,0,0,0,0,2,2,2,2,2,2,2,1,coffeeshop,1
590,Eng Kong Corner,1.3364688,103.7689253,2,5,5,0,2,5,5,0,2,5,5,0,2,5,5,0,2,5,5,0,0,0,0,0,1,2,2,2,2,2,1,0,0,0,0,0,1,2,2,2,2,2,1,0,coffeeshop,1
591,Makan Central,1.3210738,103.7669149,3.5,5,6,0.5,3.5,5,6,0.5,3.5,5,6,0.5,3.5,5,6,0.5,3.5,5,6,0.5,0,0,0,0.5,2,2,2,2,2,2,2,0.5,0,0,0,0.5,2,2,2,2,2,2,2,0.5,coffeeshop,1
592,Kedai Kopi,1.3181919,103.7674183,4,5,6,1,4,5,6,1,4,5,6,1,4,5,6,1,4,5,6,1,0,0,0,1,2,2,2,2,2,2,2,1,0,0,0,1,2,2,2,2,2,2,2,1,coffeeshop,1
593,Food Loft,1.3209605,103.7670637,4,5,6,2,4,5,6,2,4,5,6,2,4,5,6,2,4,5,6,2,0,0,0,2,2,2,2,2,2,2,2,1,0,0,0,2,2,2,2,2,2,2,2,1,coffeeshop,1
594,Baker & Cook - Eng Kong Park,1.3364202,103.7681078,3.5,5,4.5,0,3.5,5,4.5,0,3.5,5,4.5,0,3.5,5,4.5,0,3.5,5,6,0,0,0,0,0.5,2,2,2,2,2,2,2,0,0,0,0,0.5,2,2,2,2,2,2,2,0,coffeeshop,1
595,Everyday Coffee Trading,1.3385198,103.7570868,4,5,6,0,4,5,6,0,4,5,6,0,4,5,6,0,4,5,6,0,0,0,0,1,2,2,2,2,2,2,2,0,0,0,0,1,2,2,2,2,2,2,2,0,coffeeshop,1
596,Lei Yuen Delights,1.3212472,103.7666506,3,5,6,1,3,5,6,1,3,5,6,1,3,5,6,1,3,5,6,1,0,0,0,0,2,2,2,2,2,2,2,1,0,0,0,0,2,2,2,2,2,2,2,1,coffeeshop,1
597,7 Days Coffee Shop,1.3428715,103.7510835,4,5,6,1,4,5,6,1,4,5,6,1,4,5,6,1,4,5,6,1,0,0,0,1.5,2,2,2,2,2,2,2,0.5,0,0,0,1.5,2,2,2,2,2,2,2,0.5,coffeeshop,1
598,Cowpresso Coffee Roasters Singapore,1.3409543,103.7729881,0,0,0,0,0,0,0,0,1,5,4,0,1,5,4,0,0,4,6,0,0,0,0,0,0,2,2,2,2,2,2,0,0,0,0,0,0,2,2,2,2,2,2,0,coffeeshop,1
599,7th Mile Coffee Shop,1.3399497,103.7728945,3,3.5,5.5,0,3,3.5,5.5,0,3,3.5,5.5,0,3,3.5,5.5,0,3,3.5,5.5,0,0,0,0,0,2,2,2,0,1.5,2,2,0,0,0,0,0,2,2,2,0,1.5,2,2,0,coffeeshop,1
600,KONG CAFE,1.3364766,103.7834169,2.25,5,3.5,0,2.25,5,3,0,2.25,5,4,0,2.25,5,4,0,2.25,5,4,0,0,0,0,0,1.5,2,2,2,2,1,0,0,0,0,0,0,1.5,2,2,2,2,1,0,0,coffeeshop,1
601,Enchanted Cafe,1.3386171,103.7789152,4,5,6,9,4,5,6,9,4,5,6,9,4,5,6,9,4,5,6,9,2,2,2,2,2,2,2,2,2,2,2,2,2,2,2,2,2,2,2,2,2,2,2,2,coffeeshop,1
602,Cafe Link,1.3309463,103.7949868,4,5,6,2,4,5,6,2,4,5,6,2,4,5,6,2,4,5,6,2,0,0,0,1,2,2,2,2,2,2,2,2,0,0,0,1,2,2,2,2,2,2,2,2,coffeeshop,1
603,MoMiJi Kyoto Cafe,1.3370239,103.7794324,1,5,1.5,0,1,5,1.5,0,1,5,1.5,0,1,5,1.5,0,1,5,1.5,0,0,0,0,0,0,2,2,2,1.5,0,0,0,0,0,0,0,0,2,2,2,1.5,0,0,0,coffeeshop,1
604,The Coffee Bean and Tea Leaf - Guthrie House,1.3306674,103.7956886,4,5,6,0,4,5,6,0,4,5,6,0,4,5,6,0,4,5,6,0,0,0,0,1,2,2,2,2,2,2,2,0,0,0,0,1,2,2,2,2,2,2,2,0,coffeeshop,1
605,Good Good Eating House ????,1.3305793,103.7949338,4,5,6,1,4,5,6,1,4,5,6,1,4,5,6,1,4,5,6,1,0,0,0,1,2,2,2,2,2,2,2,1,0,0,0,1,2,2,2,2,2,2,2,1,coffeeshop,1
606,Toast Box,1.3310828,103.7950372,3,5,3,0,3,5,3,0,3,5,3,0,3,5,3,0,3,5,3,0,0,0,0,0,2,2,2,2,2,1,0,0,0,0,0,0,2,2,2,2,2,1,0,0,coffeeshop,1
607,Kopitown,1.3311684,103.7947877,4,5,6,1.25,0,5,6,0.75,0,5,6,0.75,4,5,6,1.25,0,5,6,0.75,0,0,0,0,0,1,2,2,2,2,2,0.75,0,0,0,0,0,1,2,2,2,2,2,0.75,coffeeshop,1
608,Baker's Cafe,1.3299009,103.7993746,1,5,2.5,0,1,5,4,0,1,5,4,0,1,5,4,0,1,5,4,0,0,0,0,0,0,2,2,2,2,2,0,0,0,0,0,0,0,2,2,2,2,0.5,0,0,coffeeshop,1
609,Hoon Thing Leong,1.332742,103.790932,3,5,4,0,3,5,4,0,2.5,5,4.5,0,3,5,4,0,3,5,4,0,0,0,0,0,2,2,2,2,2,2,0,0,0,0,0,0,1,2,2,2,2,2,1,0,coffeeshop,1
610,??? Kim San Leng,1.3327421,103.790932,4,5,6,1,4,5,6,1,4,5,6,1,4,5,6,1,4,5,6,1,0,0,0,1,2,2,2,2,2,2,2,1,0,0,0,1,2,2,2,2,2,2,2,1,coffeeshop,1
611,Simply Bread,1.3306128,103.7957268,3,5,3,0,3,5,3,0,3,5,3,0,3,5,3,0,3,5,3,0,0,0,0,0,2,2,2,2,2,1,0,0,0,0,0,0,2,2,2,2,2,1,0,0,coffeeshop,1
612,Craftsmen Coffee (Greenwood Ave),1.3312678,103.8071329,4,5,3,0,4,5,3,0,4,5,3,0,4,5,3,0,4,5,3,0,0,0,0,1,2,2,2,2,2,1,0,0,0,0,0,1,2,2,2,2,2,1,0,0,coffeeshop,1
613,Starbucks,1.3237253,103.8102997,3.5,5,6,0,3.5,5,6,0,3.5,5,6,0,3.5,5,6,0,3.5,5,6,0,0,0,0,0.5,2,2,2,2,2,2,2,0,0,0,0,0.5,2,2,2,2,2,2,2,0,coffeeshop,1
614,Plain Vanilla Cluny Court,1.3226734,103.8142876,3.5,5,3.5,0,3.5,5,3.5,0,3.5,5,3.5,0,3.5,5,3.5,0,3.5,5,3.5,0,0,0,0,0.5,2,2,2,2,2,1.5,0,0,0,0,0,0.5,2,2,2,2,2,1.5,0,0,coffeeshop,1
615,Baker & Cook - Hillcrest,1.3315811,103.8075738,4,5,3,0,4,5,3,0,4,5,3,0,4,5,3,0,4,5,4,0,0,0,0,1,2,2,2,2,2,2,0,0,0,0,0,1,2,2,2,2,2,2,0,0,coffeeshop,1
616,Little Spot,1.3210278,103.8177582,0,0,0,0,2,5,1,0,2,5,1,0,2,5,1,0,2,5,1,0,0,0,0,0,1.5,2,2,2,1,0,0,0,0,0,0,0,1.5,2,2,2,1,0,0,0,coffeeshop,1
617,Columbus Coffee Co.,1.3529,103.8354207,0,0,0,0,2,5,6,0,2,5,6,0,2,5,6,0,2,5,6,0,0,0,0,0,1,2,2,2,2,2,2,0,0,0,0,0,1,2,2,2,2,1,0,0,coffeeshop,1
618,Balance Coffee,1.3270809,103.8459447,3.5,5,4,0,3.5,5,2,0,3.5,5,4,0,3.5,5,4,0,3.5,5,4,0,0,0,0,0,1.5,2,2,2,2,2,0,0,0,0,0,0,1.5,2,2,2,2,2,0,0,coffeeshop,1
619,Teck Seng,1.3267421,103.8431644,3,5,5,0,3,5,5,0,3,5,5,0,3,5,5,0,3,5,5,0,0,0,0,0,2,2,2,2,2,2,1,0,0,0,0,0,2,2,2,2,2,2,1,0,coffeeshop,1
620,Yummiz Pte Ltd,1.318483,103.8435755,2.5,5,3.5,0,2.5,5,3.5,0,2.5,5,3.5,0,2.5,5,3.5,0,2.5,5,3.5,0,0,0,0,0,1.5,2,2,2,0.5,0,0,0,0,0,0,0,0,0,0,0,0,0,0,0,coffeeshop,1
621,Toast Box,1.3204462,103.8436106,4,5,5.5,0,4,5,5.5,0,4,5,5.5,0,4,5,5.5,0,4,5,5.5,0,0,0,0,1,2,2,2,2,2,2,1.5,0,0,0,0,1,2,2,2,2,2,2,1.5,0,coffeeshop,1
622,OLDTOWN White Coffee (Square 2),1.3208034,103.8443575,3,5,5,0,3,5,5,0,3,5,5,0,3,5,5,0,3,5,5,0,0,0,0,0,2,2,2,2,2,2,1,0,0,0,0,0,2,2,2,2,2,2,1,0,coffeeshop,1
623,Starbucks,1.3197392,103.8440293,4,5,6,0,4,5,6,0,4,5,6,0,4,5,6,0,4,5,6,0,0,0,0,0,2,2,2,2,2,2,0,0,0,0,0,0,2,2,2,2,2,2,0,0,coffeeshop,1
624,Toast Box,1.3267361,103.8467488,3,5,5,0,3,5,5,0,3,5,5,0,3,5,5,0,3,5,5,0,0,0,0,0,2,2,2,2,2,2,1,0,0,0,0,0,2,2,2,2,2,2,1,0,coffeeshop,1
625,Joe & Dough,1.3206498,103.8438102,3.5,5,5,0,3.5,5,5,0,3.5,5,5,0,3.5,5,5,0,3.5,5,5,0,0,0,0,0.5,2,2,2,2,2,2,1,0,0,0,0,0,1,2,2,2,2,2,1,0,coffeeshop,1
626,128 Choices Coffee Shop ?? ???,1.338215,103.8443239,4,5,6,9,4,5,6,9,4,5,6,9,4,5,6,9,4,5,6,9,2,2,2,2,2,2,2,2,2,2,2,2,2,2,2,2,2,2,2,2,2,2,2,2,coffeeshop,1
627,Foreword Coffee Roasters @ MHA,1.3238299,103.844904,3,5,0.5,0,2.5,5,0.5,0,2.5,5,0.5,0,2.5,5,0.5,0,2.5,5,0.5,0,0,0,0,0,0,0,0,0,0,0,0,0,0,0,0,0,0,0,0,0,0,0,0,0,coffeeshop,1
628,Block 82 Coffeeshop,1.3238848,103.8565068,4,5,5.5,0,4,5,5.5,0,4,5,5.5,0,4,5,5,0.5,4,5,5.5,0,0,0,0,1,2,2,2,2,2,2,1.5,0,0,0,0,1,2,2,2,2,2,2,1.5,0,coffeeshop,1
629,Bee Guan Coffee Shop,1.3234157,103.8539938,4,4,0,0,4,4,0,0,4,4,0,0,4,4,0,0,4,4,0,0,0,0,0,1,2,2,2,1,0,0,0,0,0,0,0,1,2,2,2,1,0,0,0,0,coffeeshop,1
630,Sing Hiap Huat Coffee Shop,1.3355772,103.8564581,4,5,5.5,0,4,5,5.5,0,4,5,5.5,0,4,5,5.5,0,4,5,5.5,0,0,0,0,1,2,2,2,2,2,2,1.5,0,0,0,0,1,2,2,2,2,2,2,1.5,0,coffeeshop,1
631,HangOut Cafe,1.3313859,103.8493807,2,5,1,0,2,5,1,0,2,5,1,0,2,5,1,0,2,5,1,0,0,0,0,0,0,0,0,0,0,0,0,0,0,0,0,0,0,0,0,0,0,0,0,0,coffeeshop,1
632,183 Coffeeshop @ Toa Payoh,1.3333586,103.8499519,2.5,5,5.5,0,2.5,5,5.5,0,2.5,5,5.5,0,2.5,5,5.5,0,2.5,5,5.5,0,0,0,0,0,1.5,2,2,2,2,2,1.5,0,0,0,0,0,1.5,2,2,2,2,2,1.5,0,coffeeshop,1
633,NCT Cafe,1.3211345,103.853126,4,5,3,0,4,5,3,0,4,5,3,0,4,5,3,0,4,5,3,0,0,0,0,1,2,2,2,2,2,1,0,0,0,0,0,1,2,2,2,2,1,0,0,0,coffeeshop,1
634,The Coffee Bean & Tea Leaf,1.3317679,103.8483991,4,5,6,9,4,5,6,9,4,5,6,9,4,5,6,9,4,5,6,9,2,2,2,2,2,2,2,2,2,2,2,2,2,2,2,2,2,2,2,2,2,2,2,2,coffeeshop,1
635,EE Hoe Eating House,1.3349979,103.856838,4,5,6,0,3,5,6,0,3,5,6,0,3,5,6,0,3,5,6,0,0,0,0,1.5,2,2,2,2,2,2,1.5,0,0,0,0,0,2,2,2,2,2,2,2,0,coffeeshop,1
636,Coffee by CSS,1.3331102,103.8500013,0,5,2.5,0,0,0,0,0,0,5,2.5,0,0,5,2.5,0,0,5,2.5,0,0,0,0,0,0,2,2,2,2,0,0,0,0,0,0,0,0,2,2,2,2,0,0,0,coffeeshop,1
637,Super 28 Coffee Shop,1.332824,103.8496375,3.5,5,6,0,3.5,5,6,0,3.5,5,6,0,3.5,5,6,0,3.5,5,6,0,0,0,0,0.5,2,2,2,2,2,2,2,0,0,0,0,0.5,2,2,2,2,2,2,2,0,coffeeshop,1
638,D?Koffie,1.3343041,103.8517348,4,5,6,2,4,5,6,2,4,5,6,2,4,5,6,2,4,5,6,2,0,0,0,2,2,2,2,2,2,2,2,0.5,0,0,0,2,2,2,2,2,2,2,2,0.5,coffeeshop,1
639,987 Coffee Shop,1.3221799,103.8635065,1,5,6,1.5,1,5,6,1.5,1,5,6,1.5,1,5,6,1.5,1,5,6,1.5,0,0,0,0,0,2,2,2,2,2,2,1.5,0,0,0,0,0,2,2,2,2,2,2,1.5,coffeeshop,1
640,BK@Macpherson,1.329893,103.8740254,4,5,6,9,4,5,6,9,4,5,6,9,4,5,6,9,4,5,6,9,2,2,2,2,2,2,2,2,2,2,2,2,2,2,2,2,2,2,2,2,2,2,2,2,coffeeshop,1
641,Musketeers Coffee,1.3240774,103.8758724,3,5,0,0,3,5,0,0,3,5,0,0,3,5,0,0,3,5,0,0,0,0,0,0,0,0,0,0,0,0,0,0,0,0,0,0,0,0,0,0,0,0,0,0,coffeeshop,1
642,Sin An Coffee Shop Pte Ltd,1.3227131,103.8668838,4,5,5,0,4,5,5,0,4,5,5,0,4,5,5,0,4,5,5,0,0,0,0,1,2,2,2,2,2,2,1,0,0,0,0,2,2,2,0,0,0,0,0,0,coffeeshop,1
643,Cafeteria,1.3265381,103.8756893,4,5,0,0.5,4,5,0,0.5,4,5,0,0.5,4,5,0,0.5,4,5,0,0.5,0,0,0,0,0,0,0,0,0,0,0,0,0,0,0,0,0,0,0,0,0,0,0,0,coffeeshop,1
644,Chop Hua Heng,1.3322472,103.8678269,1.5,4,0,0,1.5,4,0,0,1.5,4,0,0,0,0,0,0,1.5,4,0,0,0,0,0,0,0.5,2,2,1,0,0,0,0,0,0,0,0,0,0,0,0,0,0,0,0,coffeeshop,1
645,Rise: Coffee | Bakehouse | Gelato,1.3326694,103.8680478,1,5,2,0,1,5,2,0,1,5,2,0,1,5,2,0,1,5,5,0,0,0,0,0,0,2,2,2,2,2,1,0,0,0,0,0,0,2,2,2,2,0,0,0,coffeeshop,1
